,City,Lat,Lng,Max Temp,Humidity,Cloudiness,Wind Speed,Country,Date
0,Conceição do Araguaia,-8.2578,-49.2647,82.35,32,48,2.39,BR,1627337423
1,Qaanaaq,77.484,-69.3632,42.04,71,100,7.61,GL,1627337379
2,Tuktoyaktuk,69.4541,-133.0374,46.6,76,94,7.47,CA,1627337424
3,Bambous Virieux,-20.3428,57.7575,66.22,77,77,14.47,MU,1627337424
4,Butaritari,3.0707,172.7902,82.45,74,93,6.96,KI,1627337424
5,Rikitea,-23.1203,-134.9692,74.08,77,89,18.45,PF,1627337425
6,Timbiquí,2.7717,-77.6654,78.19,89,84,4.34,CO,1627337425
7,East London,-33.0153,27.9116,64.9,25,100,11.39,ZA,1627337425
8,Gold Coast,-28.0,153.4333,55.2,82,0,0.0,AU,1627337426
9,Shakawe,-18.3667,21.85,48.69,44,3,6.2,BW,1627337426
10,College,64.8569,-147.8028,70.23,51,75,8.05,US,1627337426
11,Port Elizabeth,-33.918,25.5701,67.1,32,93,11.3,ZA,1627337427
12,Vila,42.0304,-8.1588,61.74,81,4,2.66,PT,1627337427
13,Mosetse,-20.75,26.65,49.03,66,0,15.12,BW,1627337427
14,Gravdal,68.1214,13.5031,53.49,100,75,10.36,NO,1627337427
15,La Ronge,55.1001,-105.2842,71.01,39,11,3.65,CA,1627337428
16,Pallasovka,50.05,46.8833,66.45,46,0,9.15,RU,1627337428
17,Lupiro,-8.3833,36.6667,62.69,56,50,3.98,TZ,1627337428
18,São Filipe,14.8961,-24.4956,75.38,82,24,10.38,CV,1627337409
19,Torbay,47.6666,-52.7314,63.28,81,45,4.0,CA,1627337429
20,Lebu,-37.6167,-73.65,47.71,69,7,16.35,CL,1627337393
21,Poltava,49.5937,34.5407,72.46,47,47,8.46,UA,1627337429
22,Gejiu,23.306,103.1635,54.77,93,14,1.21,CN,1627337429
23,Panabá,21.2833,-88.2667,81.72,76,88,10.04,MX,1627337430
24,Chui,-33.6971,-53.4616,49.42,79,77,10.4,UY,1627337408
25,San Patricio,28.017,-97.5169,95.72,41,5,12.75,US,1627337392
26,Synya,65.3718,58.0387,43.9,97,100,3.38,RU,1627337430
27,De Aar,-30.6497,24.0123,42.1,41,36,6.78,ZA,1627337430
28,Thompson,55.7435,-97.8558,76.53,21,3,5.68,CA,1627337396
29,Batemans Bay,-35.7167,150.1833,54.19,64,100,6.91,AU,1627337431
30,Mitsamiouli,-11.3847,43.2844,75.49,70,0,12.73,KM,1627337431
31,Grand-Santi,4.25,-54.3833,75.25,94,96,2.53,GF,1627337431
32,Avarua,-21.2078,-159.775,78.85,78,40,9.22,CK,1627337380
33,Albany,42.6001,-73.9662,84.58,50,0,1.01,US,1627337030
34,Presidencia Roque Sáenz Peña,-26.7852,-60.4388,69.15,48,98,13.11,AR,1627337424
35,Camacha,33.0833,-16.3333,71.53,78,75,10.36,PT,1627337432
36,Sarh,9.1429,18.3923,71.33,96,100,2.1,TD,1627337432
37,Huarmey,-10.0681,-78.1522,68.27,76,21,12.24,PE,1627337433
38,Cape Town,-33.9258,18.4232,60.1,51,9,9.6,ZA,1627337396
39,Sivaki,52.6333,126.75,65.14,88,58,5.32,RU,1627337433
40,Arraial do Cabo,-22.9661,-42.0278,71.26,79,0,29.12,BR,1627337383
41,Jamestown,42.097,-79.2353,82.29,44,1,8.05,US,1627337433
42,Bluff,-46.6,168.3333,44.8,77,32,18.45,NZ,1627337398
43,Punta Arenas,-53.15,-70.9167,42.12,81,0,13.8,CL,1627337086
44,Bubaque,11.2833,-15.8333,80.13,83,100,12.06,GW,1627337434
45,Hanyang,32.1371,105.5126,67.53,77,96,5.66,CN,1627337434
46,Ushuaia,-54.8,-68.3,31.37,92,98,2.42,AR,1627337015
47,Kapuskasing,49.4169,-82.4331,67.51,59,92,2.42,CA,1627337177
48,Praia,14.9215,-23.5087,77.54,78,20,8.05,CV,1627337435
49,Alpena,45.0617,-83.4327,85.95,48,1,6.67,US,1627337407
50,Ubari,26.5921,12.7805,84.99,21,0,9.71,LY,1627337435
51,Kerrobert,51.9168,-109.1348,80.47,35,3,2.98,CA,1627337416
52,Baruun-Urt,46.6806,113.2792,57.2,82,99,4.05,MN,1627337435
53,Saskylakh,71.9167,114.0833,51.04,75,55,4.65,RU,1627337389
54,Kangaatsiaq,68.3065,-53.4641,49.1,83,100,15.32,GL,1627337172
55,Juegang,32.3174,121.1855,77.97,95,100,27.74,CN,1627337436
56,Hobart,-42.8794,147.3294,51.66,88,75,1.01,AU,1627337252
57,Okha,53.5739,142.9478,65.68,96,100,5.35,RU,1627337436
58,Buraidah,26.326,43.975,95.47,14,45,12.55,SA,1627337437
59,Turukhansk,65.8167,87.9833,72.95,54,69,16.24,RU,1627337437
60,Yellowknife,62.456,-114.3525,70.32,60,75,11.5,CA,1627337387
61,Atuona,-9.8,-139.0333,78.15,68,43,23.8,PF,1627337386
62,Guarapari,-20.6667,-40.4975,73.29,82,0,11.79,BR,1627337437
63,Biak,-0.9131,122.8766,72.32,75,76,5.17,ID,1627337438
64,Busselton,-33.65,115.3333,50.09,69,99,33.33,AU,1627337376
65,Salta,-24.7859,-65.4117,57.49,61,0,3.0,AR,1627337438
66,Bredasdorp,-34.5322,20.0403,51.28,54,100,4.94,ZA,1627337377
67,Bethel,41.3712,-73.414,87.73,60,1,5.75,US,1627337192
68,Chara,56.9064,118.2631,62.91,62,0,0.6,RU,1627337439
69,Yeppoon,-23.1333,150.7333,49.78,73,1,7.05,AU,1627337429
70,Tasiilaq,65.6145,-37.6368,38.97,87,47,2.44,GL,1627336733
71,Kapaa,22.0752,-159.319,86.32,75,40,4.0,US,1627337370
72,Porto Torres,40.835,8.3972,78.98,72,87,1.41,IT,1627337439
73,Castro,-24.7911,-50.0119,58.82,65,1,4.56,BR,1627337270
74,Ancud,-41.8697,-73.8203,45.93,73,63,7.61,CL,1627337440
75,St. George's,12.0564,-61.7485,82.08,83,40,5.75,GD,1627337440
76,Marsh Harbour,26.5412,-77.0636,83.97,71,8,10.69,BS,1627337440
77,Marawi,7.9986,124.2928,70.65,90,100,5.73,PH,1627337440
78,Hilo,19.7297,-155.09,78.53,78,90,11.5,US,1627337169
79,Vallenar,-28.5708,-70.7581,61.48,36,0,4.9,CL,1627337441
80,Inta,66.0317,60.1659,45.45,95,100,6.87,RU,1627337441
81,Egvekinot,66.3167,-179.1667,44.65,94,100,2.04,RU,1627337441
82,Carangola,-20.7331,-42.0294,63.95,60,0,5.64,BR,1627337442
83,Yamada,39.4667,141.95,70.12,98,100,14.41,JP,1627337442
84,Gberia Fotombu,9.8833,-11.1667,70.25,98,96,6.64,SL,1627337442
85,Espinosa,-14.9261,-42.8192,70.59,44,31,5.46,BR,1627337443
86,Korla,41.7597,86.1469,82.85,27,0,8.79,CN,1627337443
87,Stornoway,58.2093,-6.3865,63.93,94,90,3.44,GB,1627337443
88,Bengkulu,-3.8004,102.2655,73.63,76,2,4.52,ID,1627337124
89,Chaoyang,41.5703,120.4586,74.97,86,83,3.42,CN,1627337444
90,Komsomolets,53.7453,62.0708,52.43,65,11,7.56,KZ,1627337444
91,Barrow,71.2906,-156.7887,48.22,93,90,6.91,US,1627337384
92,Deputatsky,69.3,139.9,42.96,86,100,3.47,RU,1627337390
93,Sørland,67.667,12.6934,53.67,92,15,11.65,NO,1627337444
94,Dhārchula,29.85,80.5333,74.79,96,98,0.25,IN,1627337445
95,Khatanga,71.9667,102.5,59.02,67,49,16.8,RU,1627337417
96,Lüderitz,-26.6481,15.1594,66.61,44,0,5.57,NA,1627337445
97,Upornaya,44.3914,41.0196,67.96,75,100,7.87,RU,1627337445
98,Hong Kong,22.2855,114.1577,87.33,84,96,5.99,HK,1627337330
99,Vaini,-21.2,-175.2,77.16,88,75,10.36,TO,1627337374
100,Airai,-8.9266,125.4092,55.54,57,18,3.09,TL,1627337416
101,Cornwall,45.0181,-74.7281,79.29,82,20,10.36,CA,1627337446
102,Coahuayana Viejo,18.7333,-103.6833,90.88,68,46,5.97,MX,1627337446
103,Toppenish,46.3774,-120.3087,99.36,12,100,5.99,US,1627337446
104,Belaya Gora,68.5333,146.4167,54.43,47,83,12.15,RU,1627337447
105,Grindavik,63.8424,-22.4338,50.47,87,90,8.05,IS,1627337424
106,Durrës,41.3231,19.4414,73.58,68,76,4.81,AL,1627337447
107,Mossamedes,-15.1961,12.1522,66.15,81,0,1.05,AO,1627337447
108,Carnarvon,-24.8667,113.6333,68.07,79,90,14.97,AU,1627337386
109,Lumphat,13.4878,106.9816,72.5,99,86,2.51,KH,1627337448
110,Hermanus,-34.4187,19.2345,51.8,62,35,5.95,ZA,1627337397
111,Hambantota,6.1241,81.1185,80.04,82,98,18.59,LK,1627337448
112,Moose Factory,51.2585,-80.6094,59.2,61,76,8.75,CA,1627337448
113,Ximeicun,24.9639,118.3794,80.28,80,97,2.21,CN,1627337449
114,Saint George,37.1041,-113.5841,87.33,44,56,11.07,US,1627337374
115,Cap Malheureux,-19.9842,57.6142,66.47,85,38,3.0,MU,1627337449
116,Havelock,34.8791,-76.9013,88.03,81,59,10.0,US,1627337449
117,Mataura,-46.1927,168.8643,44.47,94,47,2.77,NZ,1627337169
118,Kasangulu,-4.5911,15.1708,75.15,37,93,5.17,CD,1627337450
119,Lompoc,34.6391,-120.4579,78.01,81,75,8.05,US,1627337354
120,Ahipara,-35.1667,173.1667,57.0,72,18,17.47,NZ,1627337450
121,Alindao,5.0267,21.2088,67.62,97,100,2.21,CF,1627337450
122,Kulhudhuffushi,6.6221,73.07,81.25,79,100,11.81,MV,1627337451
123,Kaitangata,-46.2817,169.8464,48.92,68,84,6.64,NZ,1627337417
124,Mahon,39.8885,4.2658,73.96,68,0,11.5,ES,1627337451
125,Oktyabr'skiy,54.4815,53.471,60.03,53,77,4.52,RU,1627337451
126,Arman',59.7,150.1667,57.79,85,92,6.08,RU,1627337452
127,Miyako,39.6367,141.9525,70.02,98,100,13.24,JP,1627337452
128,Vardø,70.3705,31.1107,41.2,86,58,10.63,NO,1627337452
129,Tiksi,71.6872,128.8694,38.41,88,77,10.29,RU,1627337167
130,Vao,-22.6667,167.4833,67.95,60,100,16.89,NC,1627337453
131,Omiš,43.4447,16.6886,82.45,45,87,7.36,HR,1627337453
132,Houma,29.5958,-90.7195,96.8,68,40,8.05,US,1627337453
133,Dikson,73.5069,80.5464,37.81,100,100,4.61,RU,1627337124
134,Raudeberg,61.9875,5.1352,65.86,76,88,8.84,NO,1627337377
135,Zapolyarnyy,69.4154,30.8136,47.48,94,10,3.0,RU,1627337454
136,Faya,18.3851,42.4509,66.72,63,75,4.23,SA,1627337423
137,Mar del Plata,-38.0023,-57.5575,43.12,74,40,1.01,AR,1627337391
138,Puerto Nariño,-3.7703,-70.3831,84.15,95,100,2.8,CO,1627337454
139,Saint Paul Harbor,57.79,-152.4072,60.31,67,90,6.91,US,1627337428
140,High Level,58.5169,-117.136,71.91,47,41,4.18,CA,1627337455
141,Touros,-5.1989,-35.4608,77.9,80,2,11.72,BR,1627337439
142,Esil,51.9556,66.4042,57.38,57,25,2.89,KZ,1627337424
143,Lata,40.1629,-8.3327,66.04,97,1,2.84,PT,1627337438
144,Hithadhoo,-0.6,73.0833,80.22,79,96,8.16,MV,1627337168
145,San Cristobal,7.7669,-72.225,77.18,92,91,4.56,VE,1627337422
146,Chokurdakh,70.6333,147.9167,43.72,69,95,12.53,RU,1627337389
147,Ostrovnoy,68.0531,39.5131,46.31,85,100,23.06,RU,1627337456
148,Margate,51.3813,1.3862,66.06,86,32,1.99,GB,1627337456
149,Puerto Ayora,-0.7393,-90.3518,76.96,84,43,10.0,EC,1627337395
150,Ponta do Sol,32.6667,-17.1,75.0,81,4,7.09,PT,1627337442
151,Ixtapa,20.7,-105.2,87.22,66,75,9.22,MX,1627337382
152,Tazovsky,67.4667,78.7,45.7,97,100,17.54,RU,1627337456
153,Severo-Kuril'sk,50.6789,156.125,59.83,90,100,6.91,RU,1627337030
154,Viedma,-40.8135,-62.9967,42.91,51,31,22.66,AR,1627337457
155,Archidona,37.0965,-4.3887,76.82,53,1,3.38,ES,1627337457
156,Dunedin,-45.8742,170.5036,50.81,54,96,10.0,NZ,1627337458
157,Broken Hill,-31.95,141.4333,49.39,52,7,17.34,AU,1627337458
158,Esmeraldas,-19.7625,-44.3139,68.86,40,0,5.06,BR,1627337458
159,Takoradze,4.8845,-1.7554,76.23,77,99,9.35,GH,1627337458
160,Yako,12.9667,-2.2667,85.8,52,80,14.54,BF,1627337459
161,Port Alfred,-33.5906,26.891,62.42,32,100,10.18,ZA,1627337380
162,Shache,38.4167,77.2406,84.83,26,4,2.73,CN,1627337459
163,Brigantine,39.4101,-74.3646,91.33,68,1,10.36,US,1627337459
164,Port Hedland,-20.3167,118.5667,60.85,100,59,5.75,AU,1627337460
165,George Town,5.4112,100.3354,82.89,87,20,0.0,MY,1627337408
166,Zelenets,61.8849,50.7489,52.05,96,13,6.93,RU,1627337460
167,Fes,34.0372,-4.9998,75.45,60,0,6.91,MA,1627337253
168,Agüimes,27.9054,-15.4461,69.66,83,75,26.46,ES,1627337460
169,Saint-Philippe,-21.3585,55.7679,67.55,78,71,11.59,RE,1627337369
170,Coyhaique,-45.5752,-72.0662,40.95,65,75,3.44,CL,1627337461
171,Provideniya,64.3833,-173.3,48.31,93,90,6.71,RU,1627337394
172,Vilyuysk,63.7553,121.6247,68.99,72,29,5.93,RU,1627337461
173,Timmins,48.4669,-81.3331,71.65,45,92,2.66,CA,1627337462
174,Sisimiut,66.9395,-53.6735,58.77,62,55,7.4,GL,1627337462
175,Leningradskiy,69.3833,178.4167,41.58,80,65,6.42,RU,1627337460
176,Rørvik,64.8621,11.2373,63.27,74,15,9.73,NO,1627337462
177,Macenta,8.5435,-9.471,68.52,100,68,3.18,GN,1627337463
178,Bilibino,68.0546,166.4372,51.87,52,67,7.18,RU,1627337463
179,Āsbe Teferī,9.0833,40.8667,59.11,91,98,4.27,ET,1627337463
180,Boyuibe,-20.4167,-63.2833,76.48,40,21,8.9,BO,1627337464
181,Graciano Sánchez,23.9167,-99.2833,95.95,29,1,10.25,MX,1627337464
182,Boussé,12.6606,-1.8922,82.78,58,95,15.55,BF,1627337178
183,Lagoa,39.05,-27.9833,70.5,89,79,8.3,PT,1627337461
184,Vikhorevka,56.1201,101.1636,63.99,68,5,2.15,RU,1627337464
185,Esperance,-33.8667,121.9,56.32,65,41,30.53,AU,1627337434
186,Olinda,-8.0089,-34.8553,73.13,78,40,13.8,BR,1627337465
187,City of San Pedro,14.35,121.0167,82.15,83,96,18.16,PH,1627337465
188,Okhotsk,59.3833,143.3,65.89,73,0,7.14,RU,1627337465
189,Hamilton,39.1834,-84.5333,90.45,47,40,1.01,US,1627337380
190,Orlik,52.5178,99.825,53.4,91,60,1.3,RU,1627337466
191,Sitrah,26.1547,50.6206,95.36,75,1,6.91,BH,1627337178
192,Cherskiy,68.75,161.3,50.79,55,6,14.38,RU,1627337441
193,Goderich,43.7501,-81.7165,83.91,68,0,8.59,CA,1627337426
194,Manacapuru,-3.2997,-60.6206,86.58,65,96,2.73,BR,1627337454
195,Acapulco de Juárez,16.8634,-99.8901,87.62,74,75,3.44,MX,1627337424
196,Kampot,10.6167,104.1833,82.45,83,96,7.83,KH,1627337466
197,New Norfolk,-42.7826,147.0587,51.3,85,100,1.99,AU,1627337030
198,Kalmunai,7.4167,81.8167,82.08,68,99,2.3,LK,1627337412
199,Bathsheba,13.2167,-59.5167,83.01,74,40,14.97,BB,1627337467
200,General Pico,-35.6566,-63.7568,45.79,30,0,10.6,AR,1627337467
201,Labuhan,-6.8844,112.2051,71.82,88,6,6.93,ID,1627337467
202,Pundaguitan,6.3711,126.1689,83.73,75,98,16.15,PH,1627337468
203,Viamão,-30.0811,-51.0233,63.28,98,90,9.22,BR,1627337468
204,Zelenokumsk,44.4069,43.8806,78.98,58,92,14.23,RU,1627337468
205,Ust-Tsilma,65.441,52.1498,43.65,95,100,10.22,RU,1627337432
206,Križevci,46.0219,16.5425,72.95,62,74,4.79,HR,1627337469
207,Waingapu,-9.6567,120.2641,71.82,84,73,5.3,ID,1627337469
208,Srednekolymsk,67.45,153.6833,48.51,60,73,14.56,RU,1627337469
209,Kraskino,42.7114,130.7794,72.7,92,96,2.3,RU,1627337470
210,Saint-Augustin,51.226,-58.6502,63.81,79,98,9.55,CA,1627337470
211,Norman Wells,65.282,-126.8329,63.57,52,100,6.6,CA,1627337470
212,Tura,25.5198,90.2201,75.76,94,100,3.76,IN,1627337400
213,Mount Gambier,-37.8333,140.7667,47.12,66,32,12.26,AU,1627337471
214,Meadow Lake,34.8014,-106.5436,91.62,29,41,8.28,US,1627337471
215,Naze,28.3667,129.4833,77.92,86,100,13.11,JP,1627337471
216,Kudahuvadhoo,2.6708,72.8944,82.15,67,100,2.28,MV,1627337375
217,Zhuhai,22.2769,113.5678,87.06,84,0,3.44,CN,1627337472
218,Yoichi,43.2039,140.7703,78.62,67,26,2.93,JP,1627337472
219,Nemuro,43.3236,145.575,60.35,99,100,14.83,JP,1627337472
220,San Quintín,30.4833,-115.95,72.64,70,22,11.14,MX,1627337472
221,Manzhouli,49.6,117.4333,60.08,85,92,4.47,CN,1627337433
222,Gorontalo,0.5412,123.0595,73.06,91,63,2.19,ID,1627337473
223,Souillac,-20.5167,57.5167,66.36,81,66,14.23,MU,1627337399
224,Boralday,43.3578,76.8594,80.46,32,20,6.71,KZ,1627337473
225,Longyearbyen,78.2186,15.6401,42.64,87,75,8.05,SJ,1627337474
226,Opuwo,-18.0607,13.84,59.56,34,0,6.53,NA,1627337474
227,Singkang,2.1006,102.7994,76.08,89,47,1.92,MY,1627337474
228,Saldanha,-33.0117,17.9442,55.47,83,33,9.44,ZA,1627337474
229,Kīhei,20.785,-156.4656,87.06,75,40,26.46,US,1627337475
230,Pevek,69.7008,170.3133,36.95,87,93,14.52,RU,1627337475
231,Plouzané,48.3833,-4.6167,62.78,88,75,11.5,FR,1627337475
232,Hualmay,-11.0964,-77.6139,66.29,78,27,10.92,PE,1627337476
233,Ojinaga,29.5667,-104.4167,102.42,12,1,0.0,MX,1627337476
234,Fortuna,40.5982,-124.1573,98.47,80,1,16.11,US,1627337206
235,Cockburn Town,21.4612,-71.1419,82.83,81,11,13.44,TC,1627337258
236,San Joaquin,37.9333,-121.3011,95.36,27,1,5.75,US,1627337477
237,Nyangao,-10.3333,39.2833,63.88,86,63,1.74,TZ,1627337477
238,Ambunti,-4.2365,142.8448,75.76,93,63,1.12,PG,1627337477
239,Port Blair,11.6667,92.75,81.66,86,100,19.95,IN,1627337478
240,Zonguldak,41.25,31.8333,61.05,87,10,3.83,TR,1627337478
241,Nyagan,62.1406,65.3936,49.33,93,74,5.23,RU,1627337478
242,Lima,-12.0432,-77.0282,62.85,77,90,13.8,PE,1627337306
243,Tadine,-21.55,167.8833,71.26,59,99,15.26,NC,1627337375
244,Kumba,4.6363,9.4469,69.64,91,53,2.26,CM,1627337479
245,Pau dos Ferros,-6.1125,-38.2063,79.72,55,73,5.7,BR,1627337479
246,Pavino,59.1139,46.1414,53.78,99,93,6.13,RU,1627337479
247,Autun,46.95,4.3,63.05,95,4,0.69,FR,1627337480
248,Karratha,-20.7377,116.8463,67.93,73,54,7.96,AU,1627337453
249,Palmer,42.1584,-72.3287,87.12,49,20,1.01,US,1627337434
250,Øksfjord,70.2396,22.3479,51.87,88,20,3.18,NO,1627337480
251,Severnyy,50.677,36.5532,71.64,46,0,2.24,RU,1627337480
252,Klyuchi,52.2667,79.1667,57.04,82,0,6.04,RU,1627337481
253,Port-Gentil,-0.7193,8.7815,74.93,83,90,15.37,GA,1627337481
254,Jutaí,-5.1833,-68.9,80.2,75,100,1.92,BR,1627337481
255,Sioux Lookout,50.1001,-91.917,68.77,55,100,9.46,CA,1627337482
256,Yima,34.7381,111.8839,72.72,87,16,2.95,CN,1627337482
257,Poso,-1.3959,120.7524,75.69,76,47,5.41,ID,1627337482
258,Kropotkin,45.4375,40.5756,76.6,41,75,11.12,RU,1627337482
259,Iqaluit,63.7506,-68.5145,50.7,76,70,8.01,CA,1627337382
260,Vestmannaeyjar,63.4427,-20.2734,50.85,82,100,13.67,IS,1627337455
261,Baculin,7.4525,126.5842,80.06,73,95,6.11,PH,1627337483
262,Maniitsoq,65.4167,-52.9,50.61,77,36,12.08,GL,1627337483
263,Tortolì,39.9256,9.6572,79.83,75,59,3.76,IT,1627337483
264,Dhandhuka,22.3667,71.9833,79.52,84,100,10.2,IN,1627337484
265,Umeå,63.8284,20.2597,58.91,94,0,0.0,SE,1627337484
266,Quelimane,-17.8786,36.8883,60.37,85,27,5.48,MZ,1627337460
267,Preobrazheniye,42.9019,133.9064,75.09,88,93,4.41,RU,1627337484
268,Linxia Chengguanzhen,35.6003,103.2064,58.96,59,96,3.04,CN,1627337485
269,Uyuni,-20.4597,-66.825,44.76,29,38,25.95,BO,1627337485
270,Salalah,17.0151,54.0924,78.89,83,75,4.61,OM,1627337384
271,Usinsk,65.9939,57.5281,43.84,94,100,10.13,RU,1627337485
272,Markova,48.6758,24.4138,63.73,89,37,6.55,UA,1627337486
273,Aguçadoura,41.4318,-8.7804,68.23,92,3,12.73,PT,1627337486
274,Kavaratti,10.5669,72.642,81.72,77,100,18.63,IN,1627337486
275,Vernon,50.2581,-119.2691,97.12,15,0,4.34,CA,1627337487
276,Kruisfontein,-34.0033,24.7314,64.89,26,74,13.85,ZA,1627337410
277,Faanui,-16.4833,-151.75,78.78,75,55,12.5,PF,1627337461
278,Byron Bay,-28.65,153.6167,55.06,59,0,2.98,AU,1627337487
279,Gazli,40.1333,63.45,87.66,13,0,20.47,UZ,1627337488
280,Krasnosel'kup,65.7,82.4667,54.95,97,100,14.9,RU,1627337438
281,Sosnovo-Ozerskoye,52.5249,111.5418,53.01,88,30,4.63,RU,1627337488
282,Fairbanks,64.8378,-147.7164,71.1,51,75,12.66,US,1627337202
283,Lucapa,-8.4192,20.7447,62.82,28,98,3.69,AO,1627337489
284,Porto Murtinho,-21.6989,-57.8825,85.06,24,11,4.7,BR,1627337489
285,Dongsheng,39.8161,109.9776,64.58,63,0,5.95,CN,1627337489
286,Sitka,57.0531,-135.33,60.69,77,20,6.91,US,1627337404
287,Bud,39.447,-86.1758,89.69,50,0,5.82,US,1627337490
288,Langsa,4.4683,97.9683,74.97,97,93,1.63,ID,1627337490
289,Nikolskoye,59.7035,30.7861,64.29,68,12,2.39,RU,1627337407
290,Constitución,-35.3333,-72.4167,49.66,63,0,11.61,CL,1627337378
291,Ballina,-28.8667,153.5667,50.77,63,0,4.79,AU,1627337455
292,Rawson,-43.3002,-65.1023,42.53,62,97,30.11,AR,1627337421
293,Talara,-4.5772,-81.2719,77.76,65,0,12.66,PE,1627337491
294,Pacific Grove,36.6177,-121.9166,91.02,83,20,5.01,US,1627337418
295,Itoman,26.1247,127.6694,80.98,94,40,6.91,JP,1627337492
296,Berezanka,46.8526,31.388,78.94,37,72,4.56,UA,1627337492
297,Belluno,46.145,12.2214,67.64,94,88,1.01,IT,1627337492
298,Grahamstown,-33.3042,26.5328,52.84,24,96,8.66,ZA,1627337492
299,Narsaq,60.9167,-46.05,59.22,69,20,4.68,GL,1627337168
300,Aykhal,66.0,111.5,75.2,51,14,2.91,RU,1627337423
301,Chapais,49.7834,-74.8492,52.29,91,91,11.45,CA,1627337451
302,Mahébourg,-20.4081,57.7,66.25,78,78,14.88,MU,1627337428
303,Shitanjing,39.2342,106.3439,69.37,45,42,3.62,CN,1627337493
304,Rapla,59.0072,24.7928,69.82,82,74,5.55,EE,1627337493
305,Baiquan,47.5833,126.0833,70.81,99,100,5.77,CN,1627337494
306,Ipatovo,45.7181,42.9036,77.45,40,62,10.33,RU,1627337494
307,Upernavik,72.7868,-56.1549,45.5,74,100,0.6,GL,1627337303
308,Alofi,-19.0595,-169.9187,80.49,74,40,3.44,NU,1627337468
309,Rakaia,-43.75,172.0167,46.72,84,100,12.75,NZ,1627337494
310,Nanortalik,60.1432,-45.2371,49.48,77,33,7.65,GL,1627337429
311,Walvis Bay,-22.9575,14.5053,70.09,40,0,7.09,NA,1627337495
312,Kenai,60.5544,-151.2583,66.02,76,1,9.22,US,1627337386
313,Issaquah,47.5301,-122.0326,87.62,46,1,1.01,US,1627337495
314,Richards Bay,-28.783,32.0377,62.02,58,19,14.25,ZA,1627337448
315,Kumul,42.8,93.45,83.19,21,5,12.59,CN,1627337476
316,Cambridge,43.3601,-80.3127,86.67,40,0,1.99,CA,1627337080
317,Bundaberg,-24.85,152.35,60.22,64,75,3.0,AU,1627337496
318,Taiobeiras,-15.8078,-42.2331,61.97,54,3,3.74,BR,1627337496
319,Dalby,-27.1833,151.2667,51.67,55,0,3.36,AU,1627337496
320,Mabaruma,8.2,-59.7833,78.57,84,26,3.98,GY,1627337488
321,Los Llanos de Aridane,28.6585,-17.9182,68.13,95,40,16.11,ES,1627337497
322,Nome,64.5011,-165.4064,50.07,93,90,9.22,US,1627337497
323,Tshikapa,-6.4167,20.8,69.24,30,64,3.31,CD,1627337497
324,Calatrava,10.595,123.4838,81.19,80,100,8.86,PH,1627337498
325,Kavieng,-2.5744,150.7967,82.45,72,49,7.81,PG,1627337427
326,Yangi Marg`ilon,40.4272,71.7189,83.89,23,3,6.26,UZ,1627337498
327,Sar-e Pul,35.8333,66.1667,72.34,31,0,3.89,AF,1627337498
328,Khovd,48.0056,91.6419,63.39,60,18,1.39,MN,1627337499
329,St Albans,51.75,-0.3333,67.12,85,92,5.75,GB,1627337499
330,Poya,-21.35,165.15,69.46,59,100,7.23,NC,1627337499
331,Amuntai,-2.4177,115.2494,71.24,94,11,1.14,ID,1627337499
332,Freeport,40.6576,-73.5832,91.38,55,40,3.0,US,1627337500
333,Te Anau,-45.4167,167.7167,41.79,89,60,2.06,NZ,1627337406
334,Lavrentiya,65.5833,-171.0,45.3,98,100,3.8,RU,1627337450
335,Constantine,36.365,6.6147,75.38,56,76,2.77,DZ,1627337500
336,Juneau,58.3019,-134.4197,63.84,69,75,6.91,US,1627337500
337,Kyshtovka,56.555,76.6271,47.26,86,5,7.18,RU,1627337501
338,La Asuncion,11.0333,-63.8628,80.51,80,13,8.28,VE,1627337501
339,Māngrol,21.1167,70.1167,81.64,86,100,17.47,IN,1627337350
340,Chadiza,-14.0678,32.4392,48.56,94,26,6.02,ZM,1627337502
341,Boa Vista,2.8197,-60.6733,85.98,66,75,4.61,BR,1627337214
342,Torit,4.4133,32.5678,69.67,92,100,2.17,SS,1627337502
343,Black River,18.0264,-77.8487,85.44,66,88,5.48,JM,1627337502
344,Nuuk,64.1835,-51.7216,59.61,63,7,18.41,GL,1627337459
345,Quatre Cocos,-20.2078,57.7625,66.09,78,66,13.71,MU,1627337478
346,Ippy,6.2679,21.2247,68.97,92,100,1.79,CF,1627337503
347,Honiara,-9.4333,159.95,77.99,83,100,5.32,SB,1627337461
348,Manjakandriana,-18.9167,47.8,49.69,88,98,5.91,MG,1627337503
349,Dudinka,69.4058,86.1778,58.28,89,88,10.0,RU,1627337503
350,Amalner,21.05,75.0667,77.95,79,100,8.16,IN,1627337504
351,Erenhot,43.6475,111.9767,64.99,68,20,5.37,CN,1627337504
352,Marzuq,14.4,46.4667,75.22,70,100,6.44,YE,1627337505
353,Puerto Escondido,15.85,-97.0667,86.83,62,90,6.91,MX,1627337505
354,Nizwá,22.9333,57.5333,95.41,34,77,5.48,OM,1627337505
355,Yar-Sale,66.8333,70.8333,46.2,83,16,5.01,RU,1627337373
356,Guerrero Negro,27.9769,-114.0611,78.69,54,0,14.32,MX,1627337414
357,Clyde River,70.4692,-68.5914,37.63,93,90,11.5,CA,1627337428
358,São José da Coroa Grande,-8.8978,-35.1478,74.46,87,45,9.28,BR,1627337392
359,Santa Cruz de Tenerife,28.4682,-16.2546,77.72,94,75,5.01,ES,1627337506
360,Ulan-Ude,51.8261,107.6098,57.09,88,25,6.71,RU,1627337506
361,Nantucket,41.2835,-70.0995,82.96,88,20,10.36,US,1627337316
362,Luanda,-8.8368,13.2343,69.44,93,72,5.21,AO,1627337443
363,Badou,7.5833,0.6,71.76,87,32,3.83,TG,1627337507
364,Akranes,64.3218,-22.0749,50.81,93,100,10.11,IS,1627337507
365,Talnakh,69.4865,88.3972,67.8,76,68,6.73,RU,1627337390
366,Tyul'gan,52.3405,56.166,53.42,52,29,2.93,RU,1627337507
367,Mauá,-23.6678,-46.4614,75.36,35,0,4.97,BR,1627337508
368,Taoudenni,22.6783,-3.9836,103.37,8,0,6.67,ML,1627337508
369,Valledupar,10.4631,-73.2532,85.33,62,94,3.49,CO,1627337400
370,Campbellton,48.0075,-66.6727,71.38,92,23,4.74,CA,1627337508
371,Beroroha,-21.6667,45.1667,59.85,75,16,4.61,MG,1627337509
372,Zuya,45.0531,34.3154,70.09,72,5,3.33,UA,1627337509
373,Vanimo,-2.6741,141.3028,78.15,80,60,4.47,PG,1627337509
374,Aripuanã,-9.1667,-60.6333,85.55,38,21,1.14,BR,1627337509
375,Ust-Nera,64.5667,143.2,52.79,97,100,6.29,RU,1627337510
376,Sault Ste. Marie,46.5168,-84.3333,82.69,39,1,5.75,CA,1627337222
377,Ifakara,-8.1333,36.6833,63.63,56,43,3.8,TZ,1627337510
378,Boyolangu,-8.1181,111.8935,71.29,90,55,2.46,ID,1627337510
379,Awjilah,29.1081,21.2869,81.25,44,0,10.36,LY,1627337469
380,Beringovskiy,63.05,179.3167,52.84,93,100,7.36,RU,1627337383
381,Rantepao,-2.9701,119.8978,62.87,86,29,1.99,ID,1627337432
382,Rome,43.2128,-75.4557,85.86,50,1,10.36,US,1627337502
383,Kaohsiung City,22.6163,120.3133,82.04,94,100,1.99,TW,1627337406
384,Camaçari,-12.6975,-38.3242,76.77,91,19,4.7,BR,1627337511
385,Skibbereen,51.55,-9.2667,57.0,89,100,9.55,IE,1627337511
386,Road Town,18.4167,-64.6167,84.24,79,40,8.05,VG,1627337512
387,San Jerónimo,-11.9472,-75.2829,60.01,40,14,8.3,PE,1627337512
388,Tougan,13.0667,-3.0667,84.45,56,83,8.81,BF,1627337512
389,Kāman,27.65,77.2667,86.68,69,100,2.08,IN,1627337513
390,Aklavik,68.2191,-135.0107,55.04,83,100,1.1,CA,1627337416
391,Geraldton,-28.7667,114.6,63.01,82,90,21.85,AU,1627337373
392,Fremont,37.5483,-121.9886,94.37,54,1,1.99,US,1627337229
393,Mayumba,-3.432,10.6554,70.74,93,97,4.61,GA,1627337461
394,Alugan,12.2188,125.4808,80.06,82,100,8.19,PH,1627337513
395,Poum,-20.2333,164.0167,69.89,70,100,7.96,NC,1627337512
396,Morondava,-20.2833,44.2833,67.37,62,36,9.89,MG,1627337464
397,Rincon,32.296,-81.2354,90.86,77,75,13.8,US,1627337514
398,Pozhva,59.0912,56.0847,58.28,71,90,11.65,RU,1627337514
399,Villazón,-22.0866,-65.5942,51.6,14,10,21.65,BO,1627337514
400,Beloha,-25.1667,45.05,61.83,67,71,12.46,MG,1627337448
401,Vetluga,57.8557,45.781,58.42,80,55,7.99,RU,1627337515
402,Lloydminster,53.2835,-110.0016,78.1,35,5,5.48,CA,1627337428
403,Santo Antônio do Içá,-3.1022,-67.9397,78.48,85,100,2.75,BR,1627337515
404,Lázaro Cárdenas,17.9583,-102.2,86.5,69,10,6.93,MX,1627337516
405,Vermilion,40.1667,-87.7506,88.39,51,1,4.0,US,1627337516
406,Ambanja,-13.6833,48.45,67.8,77,28,3.2,MG,1627337516
407,Labuan,5.2767,115.2417,77.16,79,100,9.08,MY,1627337358
408,Repatriación,-25.5333,-55.95,77.83,46,100,4.56,PY,1627337517
409,Taksimo,56.3444,114.8794,63.28,66,0,0.36,RU,1627337373
410,Laguna,38.421,-121.4238,100.15,23,1,1.01,US,1627337517
411,Imbituba,-28.24,-48.6703,69.69,75,68,6.11,BR,1627337517
412,Tacuatí,-23.45,-56.5833,79.75,36,82,1.95,PY,1627337518
413,Novi Grad,45.0458,16.3803,70.03,55,46,2.95,BA,1627337518
414,Honningsvåg,70.9821,25.9704,46.99,82,26,6.58,NO,1627337441
415,Necochea,-38.5473,-58.7368,42.04,60,61,20.24,AR,1627337501
416,Broome,42.2506,-75.833,83.7,51,20,4.0,US,1627337518
417,Jumla,29.2747,82.1838,64.87,99,100,1.72,NP,1627337519
418,Cayenne,4.9333,-52.3333,82.44,80,52,4.0,GF,1627337508
419,Måløy,61.9353,5.1136,73.24,76,86,9.15,NO,1627337519
420,Bristol,41.8334,-71.1662,88.61,61,1,1.01,US,1627337519
421,Jining,35.405,116.5814,76.59,95,100,7.9,CN,1627337520
422,Henderson,36.0397,-114.9819,92.75,33,52,15.26,US,1627336810
423,Codrington,-38.2667,141.9667,47.39,70,17,16.78,AU,1627337520
424,Tilichiki,60.4667,166.1,52.81,98,100,3.62,RU,1627337449
425,Oyem,1.5995,11.5793,66.94,97,89,4.79,GA,1627337520
426,Peterhead,57.5058,-1.7981,61.45,91,71,5.93,GB,1627337515
427,Mangai,-4.05,19.5333,72.57,34,70,2.75,CD,1627337521
428,Araouane,18.9048,-3.5265,101.01,23,34,9.64,ML,1627337431
429,Shelburne,44.0787,-80.2041,83.75,22,7,10.11,CA,1627337521
430,Venado Tuerto,-33.7456,-61.9688,47.79,46,31,10.51,AR,1627337522
431,Boueni,-12.9025,45.0761,75.18,68,9,19.01,YT,1627337522
432,Cabo San Lucas,22.8909,-109.9124,96.8,66,1,11.5,MX,1627337110
433,Wagar,16.1525,36.2032,76.14,81,97,20.42,SD,1627337522
434,Moanda,-1.5575,13.2178,78.6,48,93,3.85,GA,1627337523
435,Houston,29.7633,-95.3633,100.11,42,1,1.99,US,1627337141
436,Batagay-Alyta,67.8006,130.4114,54.46,76,65,9.78,RU,1627337523
437,Dunmore Town,25.5,-76.65,83.66,72,59,8.14,BS,1627337523
438,Gibara,21.1097,-76.1317,83.52,70,69,10.29,CU,1627337524
439,Cairns,-16.9167,145.7667,73.35,75,90,9.22,AU,1627337264
440,Barinas,8.6226,-70.2075,74.82,93,100,2.42,VE,1627337524
441,Yarumal,6.9632,-75.4174,57.07,97,96,1.79,CO,1627337525
442,Conde,-7.2597,-34.9075,76.46,83,0,6.91,BR,1627337329
443,West Bay,19.3667,-81.4167,87.06,73,20,1.01,KY,1627337525
444,Sola,-13.8833,167.55,80.29,78,30,16.89,VU,1627337482
445,Ulagan,50.6321,87.9563,54.03,92,75,1.92,RU,1627337525
446,Hofn,64.2539,-15.2082,52.21,80,96,7.29,IS,1627337473
447,Satipo,-11.2522,-74.6386,84.07,50,20,1.72,PE,1627337526
448,Koutsouras,35.0339,25.9469,77.13,61,0,11.1,GR,1627337526
449,Rapid City,44.0805,-103.231,100.26,25,1,4.0,US,1627337526
450,Dmytrivka,45.9717,28.9864,72.91,46,1,4.12,UA,1627337527
451,Flinders,-34.5833,150.8552,59.05,70,87,1.01,AU,1627337495
452,Zhangaözen,43.3,52.8,84.06,22,18,19.06,KZ,1627337527
453,Luau,-10.7073,22.2247,60.49,33,100,7.18,AO,1627337527
454,Fare,-16.7,-151.0167,78.76,72,48,12.3,PF,1627337528
455,Hirara,24.8,125.2833,80.46,100,75,5.75,JP,1627337503
456,Uşak Province,38.5,29.4167,67.23,55,0,10.29,TR,1627337528
457,Lumeje,-11.55,20.7833,56.21,32,100,5.39,AO,1627337528
458,Kremenchuk,49.0973,33.4197,72.19,46,25,3.15,UA,1627337529
459,Kamyshevatskaya,46.4132,37.9563,80.74,50,40,15.41,RU,1627337529
460,Ilulissat,69.2167,-51.1,55.42,54,100,23.02,GL,1627337425
461,Kitzbühel,47.4464,12.3922,65.21,74,68,1.83,AT,1627337529
462,Brownwood,31.7093,-98.9912,107.29,21,11,9.64,US,1627337309
463,Khasan,42.4308,130.6434,72.48,88,74,3.38,RU,1627337530
464,Namatanai,-3.6667,152.4333,80.82,75,46,3.02,PG,1627337480
465,Portland,45.5234,-122.6762,92.1,44,1,5.99,US,1627336970
466,Ivaiporã,-24.2478,-51.6847,66.6,54,3,2.24,BR,1627337530
467,Kaitong,44.8135,123.15,73.31,88,94,9.01,CN,1627337530
468,Campbell River,50.0163,-125.2446,76.26,48,15,4.94,CA,1627337406
469,Kloulklubed,7.0419,134.2556,83.34,79,100,17.13,PW,1627337401
470,Pangnirtung,66.1451,-65.7125,48.2,100,90,9.22,CA,1627337463
471,Gali,42.6265,41.7381,72.34,98,100,3.69,GE,1627337531
472,Nyamuswa,-1.9,34.0167,63.64,50,25,1.74,TZ,1627337531
473,Rastede,53.25,8.2,67.84,94,21,5.28,DE,1627337532
474,Magistral'nyy,56.1725,107.4458,60.8,68,54,3.38,RU,1627337532
475,Pisco,-13.7,-76.2167,68.02,80,1,3.94,PE,1627337449
476,Umm Kaddadah,13.6017,26.6876,76.87,72,85,13.33,SD,1627337491
477,Qualiano,40.9226,14.1501,85.89,38,31,2.3,IT,1627337533
478,Half Moon Bay,37.4636,-122.4286,94.57,66,75,1.01,US,1627337529
479,Lodja,-3.4833,23.4333,69.28,41,63,2.8,CD,1627337463
480,Yasnogorsk,54.4803,37.6975,60.73,84,35,4.56,RU,1627337533
481,Gerāsh,27.6652,54.1371,89.64,37,0,7.81,IR,1627337533
482,Ampanihy,-24.7,44.75,61.72,69,62,15.03,MG,1627337534
483,Onguday,50.75,86.15,55.38,95,54,2.01,RU,1627337534
484,Traverse City,44.7631,-85.6206,86.83,39,75,9.22,US,1627337507
485,Husavik,66.0449,-17.3389,52.18,75,85,4.59,IS,1627337525
486,Ketchikan,55.3422,-131.6461,59.47,88,90,3.44,US,1627337485
487,Dingle,10.9995,122.6711,79.02,85,100,11.99,PH,1627337381
488,Zhigansk,66.7697,123.3711,53.8,71,18,15.19,RU,1627337440
489,Cidreira,-30.1811,-50.2056,61.92,97,100,5.7,BR,1627337428
490,Lorengau,-2.0226,147.2712,82.4,77,80,3.74,PG,1627337445
491,Morro Bay,35.3658,-120.8499,87.19,76,99,4.0,US,1627337535
492,Tessalit,20.1986,1.0114,88.77,37,62,15.08,ML,1627337437
493,Terrace Bay,48.7834,-87.1,66.24,65,72,7.85,CA,1627337535
494,Wanning,18.8003,110.3967,79.99,89,78,7.65,CN,1627337535
495,Wuhu,31.3366,118.3755,76.87,96,100,20.4,CN,1627337536
496,Yazoo City,32.8551,-90.4056,93.7,49,14,3.0,US,1627337536
497,Guánica,17.9716,-66.908,86.5,78,97,5.99,PR,1627337536
498,Fukuechō,32.6881,128.8419,78.91,79,0,2.17,JP,1627337537
499,Bonthe,7.5264,-12.505,76.82,86,78,9.19,SL,1627337414
500,San Miguel de Tucumán,-26.8241,-65.2226,60.8,55,75,4.61,AR,1627337381
501,Sebnitz,50.9754,14.2758,66.38,93,58,4.94,DE,1627337537
502,Mikhaylovka,50.06,43.2379,65.43,49,0,8.28,RU,1627337537
503,Huambo,-12.7761,15.7392,55.94,33,24,4.94,AO,1627337538
504,Bafoulabé,13.8065,-10.8321,83.08,74,82,2.8,ML,1627337538
505,São Francisco do Sul,-26.2433,-48.6381,66.13,74,73,3.94,BR,1627337538
506,Kahului,20.8947,-156.47,87.06,75,40,26.46,US,1627337538
507,Champerico,14.3,-91.9167,93.74,68,84,6.42,GT,1627337539
508,San Andrés,12.5847,-81.7006,84.22,79,75,10.36,CO,1627337247
509,Santa Cruz de La Palma,28.6835,-17.7642,72.14,88,40,16.11,ES,1627337539
510,Derzhavīnsk,51.1,66.3167,57.43,55,2,7.05,KZ,1627337539
511,Maţāy,28.419,30.7792,84.11,30,0,8.79,EG,1627337540
512,Meulaboh,4.1363,96.1285,76.57,89,53,4.74,ID,1627337540
513,Inhambane,-23.865,35.3833,65.5,67,56,9.08,MZ,1627337540
514,Kitakata,37.65,139.8667,71.71,96,100,1.14,JP,1627337541
515,Hasaki,35.7333,140.8333,72.28,95,100,25.14,JP,1627337452
516,Henties Bay,-22.116,14.2845,69.85,60,0,4.38,NA,1627337541
517,Arandis,-22.4167,14.9667,63.46,26,0,6.64,NA,1627337541
518,Ust'-Kalmanka,52.1207,83.305,56.55,95,75,5.39,RU,1627337542
519,Methóni,36.8197,21.7049,78.22,65,0,6.44,GR,1627337542
520,Nísia Floresta,-6.0911,-35.2086,77.81,86,0,7.34,BR,1627337542
521,Charlestown,-32.95,151.6667,56.73,75,5,5.01,AU,1627337406
522,Mitú,1.1983,-70.1733,74.79,96,86,2.24,CO,1627337543
523,Piet Retief,-27.0071,30.8132,36.88,85,8,4.18,ZA,1627337543
524,Altay,47.8667,88.1167,65.16,54,7,5.08,CN,1627337543
525,Kidodi,-7.6036,37.0044,65.84,54,25,4.97,TZ,1627337544
526,Kharp,66.8014,65.8081,48.31,77,100,2.62,RU,1627337544
527,Sampit,-2.5333,112.95,72.46,93,3,3.09,ID,1627337453
528,Barcelos,41.5388,-8.6151,69.28,92,2,5.32,PT,1627337544
529,Luziânia,-16.2525,-47.9503,74.89,37,3,4.25,BR,1627337545
530,Yaan,7.3833,8.5667,72.99,81,100,4.5,NG,1627337545
531,Sittwe,20.15,92.9,79.61,86,100,17.6,MM,1627337545
532,Anaconda,46.1285,-112.9423,93.96,13,46,9.51,US,1627337545
533,Arlit,18.7369,7.3853,98.55,9,100,13.18,NE,1627337493
534,Novobeysugskaya,45.472,39.8861,75.58,43,52,9.13,RU,1627337546
535,Oistins,13.0667,-59.5333,82.49,74,40,14.97,BB,1627337461
536,Nouadhibou,20.931,-17.0347,69.91,86,25,28.19,MR,1627337475
537,Río Gallegos,-51.6226,-69.2181,39.25,87,90,28.77,AR,1627337490
538,Alta Floresta,-9.8756,-56.0861,83.08,31,60,2.75,BR,1627337514
539,Breyten,-26.3018,29.987,36.46,48,0,3.8,ZA,1627337546
540,Brae,60.3964,-1.353,58.91,95,86,14.16,GB,1627337547
541,Berlevåg,70.8578,29.0864,44.55,87,75,0.0,NO,1627337547
542,Phonhong,18.5007,102.4166,73.53,96,97,1.61,LA,1627337547
543,Havre-St-Pierre,50.2334,-63.5986,62.17,92,62,7.99,CA,1627337298
544,Ciudad Bolivar,8.1222,-63.5497,84.83,66,94,3.36,VE,1627337473
545,Ambulu,-8.345,113.6058,69.66,91,7,3.27,ID,1627337548
546,Jaciara,-15.9653,-54.9683,80.26,30,1,2.17,BR,1627337548
547,Muros,42.7762,-9.0603,66.09,76,48,7.07,ES,1627337548
548,Naifaru,5.4444,73.3657,82.02,75,100,11.43,MV,1627337549
549,Kirksville,40.1948,-92.5833,87.75,45,1,6.91,US,1627337549
550,Mizdah,31.4451,12.9801,74.08,54,0,15.1,LY,1627337549
551,Tanout,14.9709,8.8879,78.85,70,100,7.83,NE,1627337550
552,Port Lincoln,-34.7333,135.8667,55.11,48,44,23.2,AU,1627337381
553,Esna,25.2934,32.554,87.62,20,1,9.84,EG,1627337550
554,Kushikino,31.7167,130.2667,71.08,85,7,4.25,JP,1627337550
555,Gamba,-2.65,10.0,70.74,91,80,7.56,GA,1627337551
556,Benguela,-12.5763,13.4055,70.45,85,78,1.1,AO,1627337486
557,Emerald,-23.5333,148.1667,54.99,41,0,4.76,AU,1627337385
558,Jasmine Estates,28.2931,-82.6901,92.1,63,15,3.0,US,1627337551
559,Musoma,-1.5,33.8,68.18,55,48,4.47,TZ,1627337551
560,Emba,48.8264,58.1442,75.11,39,88,5.84,KZ,1627337552
561,Ossora,59.2353,163.0719,62.62,93,100,8.32,RU,1627337552
562,Shahr-e Bābak,30.1165,55.1186,78.53,18,5,25.79,IR,1627337552
563,Corrales,35.2378,-106.6067,93.18,30,40,1.99,US,1627337553
564,Atbasar,51.8,68.3333,54.81,58,6,7.14,KZ,1627337553
565,Kamenka,51.3223,42.7678,62.26,52,1,5.88,RU,1627337460
566,Lang Suan,9.9456,99.0785,79.47,83,100,6.53,TH,1627337553
567,Albeşti-Paleologu,44.95,26.2167,76.66,57,5,3.76,RO,1627337553
568,Forssa,60.8146,23.6215,65.91,69,9,1.01,FI,1627337554
569,Devonport,-41.1667,146.35,52.99,87,100,12.41,AU,1627337554
570,Narimanov,46.6927,47.8498,76.95,23,46,15.28,RU,1627337554
571,Xai-Xai,-25.0519,33.6442,61.38,83,17,3.94,MZ,1627337555
572,Irbeyskoye,55.6428,95.4522,62.22,96,6,3.4,RU,1627337555
573,Grand Gaube,-20.0064,57.6608,66.38,85,35,3.0,MU,1627337474
574,Morgan City,29.6994,-91.2068,91.99,77,67,6.8,US,1627337555
575,Talcahuano,-36.7167,-73.1167,51.48,62,0,13.8,CL,1627337556
576,Behat,30.1667,77.6167,81.43,74,100,2.3,IN,1627337556
577,Caxito,-8.5785,13.6643,68.14,95,60,0.92,AO,1627337556
578,Atasū,48.6814,71.6433,62.1,57,0,6.98,KZ,1627337556
579,Encruzilhada,-15.5314,-40.9094,65.71,74,40,6.06,BR,1627337557
580,Pandamatenga,-18.5278,25.627,49.91,49,1,4.16,BW,1627337557
581,San Miguel de Cozumel,20.5083,-86.9458,89.94,67,40,3.0,MX,1627337557
582,Merauke,-8.4667,140.3333,76.96,81,86,12.64,ID,1627337558
583,Isangel,-19.55,169.2667,77.11,69,75,0.0,VU,1627337468
584,Sambava,-14.2667,50.1667,69.91,79,95,13.49,MG,1627337558
585,Tocopilla,-22.092,-70.1979,61.72,77,19,13.0,CL,1627337527
586,Ternate,0.8,127.4,80.44,82,83,9.66,ID,1627337463
587,Chicama,-7.8447,-79.1469,66.74,70,21,9.82,PE,1627337558
588,Mayor Pablo Lagerenza,-19.9309,-60.7718,87.19,26,0,5.46,PY,1627337559
589,Étampes,48.4333,2.15,68.4,88,87,7.2,FR,1627337559
590,Mareeba,-17.0,145.4333,68.72,86,74,2.26,AU,1627337413
591,Tayturka,52.8692,103.4608,58.15,78,9,6.64,RU,1627337559
592,Ken Caryl,39.5773,-105.1169,95.92,18,0,1.99,US,1627337560
593,Williams Lake,52.1415,-122.1445,71.22,37,57,5.32,CA,1627337560
