,City,Lat,Lng,Max Temp,Humidity,Cloudiness,Wind Speed,Country,Date
0,Hobart,-42.8794,147.3294,44.92,77,99,1.99,AU,1627148245
1,Havelock,34.8791,-76.9013,86.99,58,1,5.99,US,1627148245
2,Atuona,-9.8,-139.0333,77.97,70,96,16.2,PF,1627147805
3,Vao,-22.6667,167.4833,70.81,84,19,5.68,NC,1627147805
4,Codrington,-38.2667,141.9667,44.98,76,99,23.4,AU,1627147806
5,Malpe,13.35,74.7167,79.9,86,62,10.58,IN,1627147806
6,Ushuaia,-54.8,-68.3,38.82,87,40,5.75,AR,1627147806
7,City of San Pedro,14.35,121.0167,80.15,95,90,2.3,PH,1627147807
8,Cape Town,-33.9258,18.4232,57.11,64,0,2.3,ZA,1627148246
9,Mataura,-46.1927,168.8643,38.48,90,95,3.98,NZ,1627148246
10,Abalak,58.1286,68.5944,58.26,98,99,2.71,RU,1627148246
11,Torbay,47.6666,-52.7314,67.75,72,90,13.8,CA,1627148247
12,Puerto Ayora,-0.7393,-90.3518,78.76,84,31,8.99,EC,1627148247
13,Hamilton,39.1834,-84.5333,88.36,60,1,1.99,US,1627148247
14,New Norfolk,-42.7826,147.0587,44.58,83,96,3.0,AU,1627148247
15,Algiers,36.7525,3.042,89.42,40,40,6.91,DZ,1627148076
16,Touros,-5.1989,-35.4608,88.7,50,12,19.77,BR,1627147809
17,Rio Grande,-32.035,-52.0986,82.51,65,2,5.3,BR,1627147810
18,Shatrovo,56.5167,64.6333,60.42,91,100,1.97,RU,1627147810
19,Pevek,69.7008,170.3133,37.15,92,95,7.23,RU,1627147810
20,Busselton,-33.65,115.3333,56.08,76,97,16.2,AU,1627147811
21,Huarmey,-10.0681,-78.1522,69.35,69,23,11.21,PE,1627147811
22,Hong Kong,22.2855,114.1577,85.98,88,89,11.01,HK,1627147629
23,Punta Arenas,-53.15,-70.9167,42.91,75,75,14.97,CL,1627147542
24,Longyearbyen,78.2186,15.6401,46.24,76,75,5.75,SJ,1627147778
25,Ponta do Sol,32.6667,-17.1,81.72,69,0,4.05,PT,1627147812
26,Manggar,-2.8833,108.2667,81.95,75,3,13.96,ID,1627147812
27,Nome,64.5011,-165.4064,48.27,87,90,8.05,US,1627147812
28,Rikitea,-23.1203,-134.9692,68.77,55,0,2.33,PF,1627147773
29,Bengkulu,-3.8004,102.2655,76.03,87,22,4.23,ID,1627147813
30,Waddān,29.1614,16.139,89.53,22,0,15.19,LY,1627147813
31,Bimbo,4.2567,18.4158,84.13,79,40,4.61,CF,1627147813
32,Dikson,73.5069,80.5464,38.55,96,100,28.45,RU,1627147814
33,Taltal,-25.4,-70.4833,60.35,70,26,8.39,CL,1627147814
34,Morant Bay,17.8815,-76.4093,89.22,63,97,10.69,JM,1627147814
35,Ribeira Grande,38.5167,-28.7,73.8,88,75,11.5,PT,1627147815
36,Yellowknife,62.456,-114.3525,52.32,57,75,3.0,CA,1627147815
37,Barrow,71.2906,-156.7887,41.02,93,90,3.44,US,1627147815
38,Saskylakh,71.9167,114.0833,56.57,59,95,7.0,RU,1627147796
39,Omsukchan,62.5333,155.8,48.74,94,98,5.73,RU,1627147815
40,Saint-Philippe,-21.3585,55.7679,69.39,80,67,6.26,RE,1627147788
41,Hithadhoo,-0.6,73.0833,82.42,77,48,12.17,MV,1627147816
42,Thompson,55.7435,-97.8558,66.36,68,90,11.5,CA,1627147816
43,General Roca,-39.0333,-67.5833,48.6,30,99,8.52,AR,1627147816
44,Okha,53.5739,142.9478,62.65,99,100,6.4,RU,1627147817
45,Tiksi,71.6872,128.8694,39.61,91,98,6.13,RU,1627147783
46,Kučevo,44.4775,21.67,80.92,61,46,2.37,RS,1627147817
47,Torata,-17.0769,-70.8433,68.9,18,3,8.72,PE,1627147818
48,Yokadouma,3.5167,15.05,70.48,95,88,2.17,CM,1627147818
49,Kaitangata,-46.2817,169.8464,41.94,51,80,4.45,NZ,1627147818
50,Tasiilaq,65.6145,-37.6368,42.96,98,100,1.86,GL,1627147819
51,Dunedin,-45.8742,170.5036,42.8,74,65,15.01,NZ,1627147819
52,Pergamino,-33.89,-60.5736,72.25,52,89,10.96,AR,1627147819
53,Cidreira,-30.1811,-50.2056,68.49,54,0,5.95,BR,1627147820
54,East London,-33.0153,27.9116,56.34,76,0,11.5,ZA,1627147755
55,São João da Barra,-21.6403,-41.0511,77.09,58,18,12.19,BR,1627147820
56,Muros,42.7762,-9.0603,73.69,89,38,5.73,ES,1627147820
57,Gobindapur,22.5931,88.0914,84.15,86,99,5.41,IN,1627147821
58,San Rafael del Sur,11.8485,-86.4384,83.37,51,100,0.54,NI,1627147821
59,Pisco,-13.7,-76.2167,68.05,64,0,9.22,PE,1627147821
60,Darnah,32.767,22.6367,79.45,67,0,16.51,LY,1627147822
61,Laguna,38.421,-121.4238,97.65,50,1,1.01,US,1627147822
62,Tepetzintla,21.1667,-97.8333,88.32,48,9,7.16,MX,1627147822
63,Jamestown,42.097,-79.2353,80.19,59,1,5.99,US,1627147526
64,Takoradze,4.8845,-1.7554,77.52,71,84,8.88,GH,1627147800
65,Upernavik,72.7868,-56.1549,39.11,90,99,6.85,GL,1627147787
66,Khatanga,71.9667,102.5,59.72,75,95,11.83,RU,1627147823
67,Arraial do Cabo,-22.9661,-42.0278,78.76,57,0,19.57,BR,1627147823
68,Qaanaaq,77.484,-69.3632,41.58,65,82,1.03,GL,1627147815
69,George Town,5.4112,100.3354,85.89,81,20,0.0,MY,1627147823
70,Midland,31.9974,-102.0779,93.47,44,1,8.05,US,1627147593
71,Port Keats,-14.25,129.55,69.82,45,77,3.2,AU,1627147824
72,Benghazi,32.1167,20.0667,79.97,70,0,14.74,LY,1627147824
73,Port Alfred,-33.5906,26.891,58.39,71,0,22.12,ZA,1627147799
74,Port Hardy,50.6996,-127.4199,57.38,100,90,3.44,CA,1627147814
75,Novy Urengoy,66.0833,76.6333,55.54,94,100,6.29,RU,1627147825
76,Bredasdorp,-34.5322,20.0403,49.32,81,59,3.44,ZA,1627147773
77,Djambala,-2.5447,14.7533,80.28,32,44,4.56,CG,1627147825
78,Nelidovo,56.2211,32.7774,59.04,62,91,4.29,RU,1627147826
79,Itapemirim,-21.0111,-40.8339,73.67,56,2,12.73,BR,1627147826
80,Butaritari,3.0707,172.7902,83.52,73,19,18.1,KI,1627147813
81,Los Llanos de Aridane,28.6585,-17.9182,74.12,78,20,16.11,ES,1627147826
82,Aklavik,68.2191,-135.0107,63.32,94,90,5.75,CA,1627147827
83,Chapada dos Guimarães,-15.4606,-55.7497,85.66,19,1,6.71,BR,1627147827
84,Albany,42.6001,-73.9662,82.62,51,7,3.4,US,1627147606
85,Yenagoa,4.9247,6.2642,76.66,72,68,7.31,NG,1627147828
86,Bambous Virieux,-20.3428,57.7575,70.05,83,40,8.05,MU,1627147828
87,Bonavista,48.6499,-53.1147,66.2,78,75,6.6,CA,1627147828
88,Stornoway,58.2093,-6.3865,67.93,82,53,10.36,GB,1627147828
89,Carnarvon,-24.8667,113.6333,62.67,70,40,9.22,AU,1627147800
90,Mayor Pablo Lagerenza,-19.9309,-60.7718,97.57,18,0,15.32,PY,1627147829
91,Silver City,32.7701,-108.2803,66.63,89,90,3.44,US,1627147829
92,Meulaboh,4.1363,96.1285,77.61,87,99,3.31,ID,1627147829
93,Port Elizabeth,-33.918,25.5701,59.29,72,0,13.8,ZA,1627147777
94,Hofn,64.2539,-15.2082,53.26,99,100,15.86,IS,1627147830
95,Castro,-24.7911,-50.0119,70.63,40,0,6.55,BR,1627147830
96,Benguela,-12.5763,13.4055,70.07,83,10,4.97,AO,1627147830
97,Mahébourg,-20.4081,57.7,70.09,83,40,8.05,MU,1627147786
98,Pombas,17.1503,-25.0201,80.38,71,43,11.45,CV,1627147831
99,Kismayo,-0.3582,42.5454,76.46,77,59,20.22,SO,1627147831
100,São Félix do Xingu,-6.6447,-51.995,95.63,22,88,5.82,BR,1627147831
101,Asău,46.4333,26.4,74.32,67,60,0.4,RO,1627147832
102,Katsuura,35.1333,140.3,81.1,85,0,7.11,JP,1627147832
103,Aracati,-4.5617,-37.7697,89.01,41,23,11.77,BR,1627147832
104,Conceição do Araguaia,-8.2578,-49.2647,91.53,31,0,11.5,BR,1627147833
105,Provideniya,64.3833,-173.3,46.69,98,100,12.12,RU,1627147833
106,Itarema,-2.9248,-39.9167,85.21,53,41,18.03,BR,1627147833
107,Thinadhoo,0.5333,72.9333,83.21,73,34,7.83,MV,1627147834
108,Djibo,14.1022,-1.6306,87.73,48,100,5.39,BF,1627147834
109,Annau,37.8876,58.516,96.3,17,0,6.91,TM,1627147834
110,Stettler,52.3168,-112.7186,69.55,46,16,5.75,CA,1627147834
111,Hermanus,-34.4187,19.2345,56.89,60,64,0.4,ZA,1627147751
112,Jardim,-21.4803,-56.1381,92.14,21,0,8.86,BR,1627147573
113,Lata,40.1629,-8.3327,80.04,56,3,11.36,PT,1627147835
114,Salalah,17.0151,54.0924,78.89,94,90,5.75,OM,1627147835
115,Polson,47.6936,-114.1632,76.77,38,2,0.98,US,1627147836
116,Viedma,-40.8135,-62.9967,53.01,35,100,13.4,AR,1627147836
117,Hilo,19.7297,-155.09,76.62,94,90,6.91,US,1627147836
118,Winnemucca,40.973,-117.7357,86.11,14,1,14.97,US,1627147836
119,Faya,18.3851,42.4509,71.71,66,83,2.24,SA,1627147837
120,Mossamedes,-15.1961,12.1522,66.79,80,0,5.95,AO,1627147837
121,Yulara,-25.2406,130.9889,42.64,61,69,5.75,AU,1627147716
122,Saint Paul Harbor,57.79,-152.4072,54.91,88,90,4.61,US,1627147715
123,Pundaguitan,6.3711,126.1689,84.27,74,97,14.34,PH,1627147838
124,Vaini,-21.2,-175.2,69.96,100,20,0.0,TO,1627147838
125,Pouébo,-20.4,164.5667,68.43,88,3,3.65,NC,1627147838
126,Sémbé,1.6481,14.5806,75.36,76,98,1.77,CG,1627147839
127,Bandarbeyla,9.4942,50.8122,78.33,73,74,29.24,SO,1627147839
128,Alofi,-19.0595,-169.9187,73.29,100,60,3.44,NU,1627147839
129,Pyatovskiy,54.6891,36.0563,66.24,60,89,2.82,RU,1627147840
130,Horn Lake,34.9554,-90.0348,92.95,65,75,5.99,US,1627147840
131,Comarapa,-17.9,-64.4833,69.57,44,1,8.66,BO,1627147840
132,Saint George,37.1041,-113.5841,92.53,42,1,1.99,US,1627147685
133,Huichapan,20.3833,-99.65,67.78,55,58,5.32,MX,1627147841
134,Sitka,57.0531,-135.33,57.09,88,90,0.0,US,1627147708
135,Sukumo,32.9333,132.7333,73.9,95,100,5.84,JP,1627147841
136,Port Antonio,18.18,-76.4612,89.51,58,94,8.97,JM,1627147841
137,São Filipe,14.8961,-24.4956,74.71,73,78,7.78,CV,1627147842
138,Manadhoo,5.7667,73.3833,82.72,73,83,5.84,MV,1627147842
139,Hasaki,35.7333,140.8333,75.6,84,0,7.45,JP,1627147842
140,Tateyama,34.9833,139.8667,81.01,83,0,7.61,JP,1627147843
141,Hobyo,5.3505,48.5268,78.48,71,80,28.7,SO,1627147843
142,Beirut,33.8889,35.4944,83.14,65,20,5.75,LB,1627147604
143,Kapaa,22.0752,-159.319,79.12,81,90,4.0,US,1627147718
144,Manicoré,-5.8092,-61.3003,91.35,55,75,5.75,BR,1627147844
145,Port-Gentil,-0.7193,8.7815,78.76,69,90,12.66,GA,1627147844
146,Port Moresby,-9.4431,147.1797,76.42,100,75,3.44,PG,1627147844
147,Kahului,20.8947,-156.47,78.06,91,40,14.97,US,1627147721
148,Pangnirtung,66.1451,-65.7125,50.0,66,90,9.22,CA,1627147811
149,Dongsheng,39.8161,109.9776,73.27,58,72,21.0,CN,1627147845
150,Kuty,48.2587,25.1795,63.9,85,48,3.44,UA,1627147845
151,Safi,32.2994,-9.2372,75.63,62,76,21.9,MA,1627147845
152,Afyonkarahisar,38.75,30.6667,72.72,35,34,11.45,TR,1627147845
153,Arona,28.0996,-16.681,77.02,62,20,8.01,ES,1627147846
154,Nuevitas,21.5453,-77.2644,90.84,70,57,10.27,CU,1627147846
155,Hīt,33.6416,42.8251,100.9,19,0,10.36,IQ,1627147820
156,Constitución,-35.3333,-72.4167,53.33,85,98,11.41,CL,1627147846
157,Devils Lake,48.1128,-98.8651,80.94,31,1,15.01,US,1627147621
158,Bilibino,68.0546,166.4372,50.59,68,41,1.3,RU,1627147847
159,Kushmurun,52.4503,64.6311,68.7,85,100,3.27,KZ,1627147847
160,Methana,37.5823,23.3914,85.28,49,8,10.51,GR,1627147847
161,Loreto,22.2667,-101.9667,70.52,54,5,1.79,MX,1627147763
162,Airai,-8.9266,125.4092,56.01,41,27,3.18,TL,1627147848
163,Norman Wells,65.282,-126.8329,57.24,62,75,10.36,CA,1627147825
164,Avarua,-21.2078,-159.775,71.65,78,40,4.61,CK,1627147799
165,Aksu,41.1231,80.2644,86.41,31,0,5.06,CN,1627147848
166,Buritizeiro,-17.3511,-44.9622,82.26,24,0,6.78,BR,1627147848
167,Ipameri,-17.7219,-48.1597,80.4,23,0,10.13,BR,1627147849
168,Mindelo,16.8901,-24.9804,81.95,51,20,16.11,CV,1627147849
169,Sioux Lookout,50.1001,-91.917,79.18,47,90,12.66,CA,1627147797
170,Iqaluit,63.7506,-68.5145,47.93,81,90,13.8,CA,1627147842
171,Taoudenni,22.6783,-3.9836,111.47,6,3,10.25,ML,1627147850
172,Leningradskiy,69.3833,178.4167,37.63,93,99,4.88,RU,1627147850
173,Tuktoyaktuk,69.4541,-133.0374,57.2,62,75,17.27,CA,1627147796
174,Kudymkar,59.0173,54.656,51.49,73,98,4.63,RU,1627147850
175,Suntar,62.1444,117.6319,59.68,80,72,5.84,RU,1627147850
176,Huangpi,30.8845,114.3779,80.71,83,0,4.47,CN,1627147851
177,Jacareacanga,-6.2222,-57.7528,99.19,22,75,4.47,BR,1627147851
178,Rayachoti,14.05,78.75,81.03,66,48,14.88,IN,1627147851
179,Lukovetskiy,64.2956,41.9211,53.58,67,96,8.19,RU,1627147852
180,Marawi,7.9986,124.2928,70.11,90,77,5.79,PH,1627147852
181,San Cristobal,7.7669,-72.225,80.78,48,100,6.67,VE,1627147756
182,Lagoa,39.05,-27.9833,71.29,95,22,14.63,PT,1627147852
183,Nhulunbuy,-12.2333,136.7667,66.81,94,20,0.0,AU,1627147853
184,Narsaq,60.9167,-46.05,46.62,93,100,5.64,GL,1627147809
185,Mar del Plata,-38.0023,-57.5575,55.0,63,0,13.0,AR,1627147800
186,Binga,-17.6203,27.3414,63.79,64,1,3.38,ZW,1627147853
187,Daru,-9.0763,143.2092,77.9,87,98,13.31,PG,1627147853
188,Itapagé,-3.6867,-39.5861,92.68,27,31,10.65,BR,1627147854
189,Waingapu,-9.6567,120.2641,71.13,76,6,6.17,ID,1627147854
190,Wattegama,6.7989,81.4808,79.39,71,99,10.36,LK,1627147855
191,Mananara,-16.1667,49.7667,66.22,84,22,5.95,MG,1627147855
192,Humboldt,40.6665,-123.9178,52.18,31,1,5.61,US,1627147855
193,Sechura,-5.5569,-80.8222,75.29,59,12,10.76,PE,1627147855
194,Kuito,-12.3833,16.9333,59.5,27,1,1.52,AO,1627147856
195,Mana,5.6592,-53.7767,84.07,73,72,11.92,GF,1627147856
196,Fairbanks,64.8378,-147.7164,59.59,94,90,8.05,US,1627147857
197,Chui,-33.6971,-53.4616,63.9,75,46,5.41,UY,1627147857
198,Caravelas,-17.7125,-39.2481,74.52,62,54,9.44,BR,1627147857
199,Bonthe,7.5264,-12.505,76.03,86,100,9.4,SL,1627147857
200,Kloulklubed,7.0419,134.2556,82.9,80,100,9.42,PW,1627147858
201,Departamento de Maldonado,-34.6667,-54.9167,63.79,76,96,11.12,UY,1627147858
202,Cherskiy,68.75,161.3,42.44,77,80,2.77,RU,1627147858
203,Notsé,6.95,1.1667,77.74,70,82,6.11,TG,1627147859
204,Ntcheu,-14.8203,34.6359,54.1,81,50,10.11,MW,1627147859
205,Koson,39.0375,65.585,88.12,15,0,11.54,UZ,1627147859
206,Kavaratti,10.5669,72.642,81.54,84,15,18.99,IN,1627147859
207,Lianzhou,24.7811,112.3825,77.41,86,3,2.64,CN,1627147860
208,Nishihara,26.1842,127.7558,80.26,97,90,13.8,JP,1627147838
209,Pasān,22.85,82.2,75.18,94,100,5.97,IN,1627147860
210,Hambantota,6.1241,81.1185,80.35,80,83,15.28,LK,1627147788
211,Bluff,-46.6,168.3333,38.8,76,90,11.77,NZ,1627147707
212,Cabo San Lucas,22.8909,-109.9124,96.51,66,1,8.99,MX,1627147826
213,Nemuro,43.3236,145.575,61.36,97,72,9.37,JP,1627147861
214,La Santisima Trinidad,-14.8333,-64.9,89.58,51,0,9.22,BO,1627147861
215,Klaksvík,62.2266,-6.589,50.92,94,70,19.91,FO,1627147861
216,Raudeberg,61.9875,5.1352,60.87,91,98,3.53,NO,1627147862
217,Namatanai,-3.6667,152.4333,78.17,82,32,4.16,PG,1627147857
218,Ushtobe,45.2514,77.9838,80.6,25,0,9.04,KZ,1627147862
219,Tazovsky,67.4667,78.7,50.31,91,100,5.5,RU,1627147862
220,Itanhaém,-24.1831,-46.7889,88.41,60,0,4.45,BR,1627147840
221,Santa Cruz de la Sierra,-17.8,-63.1667,89.06,40,20,25.32,BO,1627147863
222,Nikolskoye,59.7035,30.7861,66.09,61,25,2.86,RU,1627147835
223,Chokurdakh,70.6333,147.9167,36.63,86,17,12.41,RU,1627147863
224,Basco,20.4487,121.9702,83.01,86,85,32.28,PH,1627147864
225,Dingle,10.9995,122.6711,77.27,87,90,10.09,PH,1627147864
226,Artyom,40.4723,50.333,78.94,81,0,25.5,AZ,1627147864
227,Vilhena,-12.7406,-60.1458,88.02,37,20,10.36,BR,1627147864
228,Nastola,60.95,25.9333,69.84,52,85,4.94,FI,1627147865
229,Guerrero Negro,27.9769,-114.0611,77.54,60,100,8.88,MX,1627147865
230,Faanui,-16.4833,-151.75,77.95,68,13,12.91,PF,1627147865
231,Vila Franca do Campo,37.7167,-25.4333,73.81,72,18,8.16,PT,1627147866
232,Rørvik,64.8621,11.2373,57.52,83,93,8.59,NO,1627147866
233,Gamba,-2.65,10.0,71.82,79,31,7.45,GA,1627147866
234,College,64.8569,-147.8028,60.46,94,75,0.0,US,1627147866
235,Eilenburg,51.4598,12.6334,82.11,63,98,7.96,DE,1627147867
236,Yangi Marg`ilon,40.4272,71.7189,88.52,37,0,2.3,UZ,1627147867
237,Olafsvik,64.8945,-23.7142,50.72,90,98,9.93,IS,1627147867
238,Honiara,-9.4333,159.95,76.44,85,89,4.63,SB,1627147868
239,Petropavlovsk-Kamchatskiy,53.0452,158.6483,52.39,100,40,2.24,RU,1627147868
240,Portland,45.5234,-122.6762,81.1,60,1,1.99,US,1627148093
241,Yar-Sale,66.8333,70.8333,52.95,73,100,8.57,RU,1627147795
242,Sakakah,29.9697,40.2064,96.37,22,0,13.56,SA,1627147869
243,Lebu,-37.6167,-73.65,53.37,67,30,12.12,CL,1627147869
244,Tyup,42.7276,78.3648,65.17,43,2,3.87,KG,1627147869
245,Novobureyskiy,49.798,129.8774,69.51,97,100,9.28,RU,1627147869
246,Kruisfontein,-34.0033,24.7314,52.88,49,3,6.67,ZA,1627147870
247,Umm Kaddadah,13.6017,26.6876,91.51,30,96,9.28,SD,1627147870
248,Tual,-5.6667,132.75,79.56,77,99,14.09,ID,1627147870
249,Kopavogur,64.1123,-21.913,53.85,87,90,16.11,IS,1627147871
250,Nouadhibou,20.931,-17.0347,75.18,78,3,18.41,MR,1627147871
251,Nioro,13.35,-15.75,91.89,38,41,7.02,GM,1627147864
252,Broome,42.2506,-75.833,81.66,55,20,1.01,US,1627147871
253,Ilulissat,69.2167,-51.1,46.42,71,75,13.8,GL,1627147804
254,Ladozhskaya,45.3081,39.935,78.06,48,18,4.45,RU,1627147872
255,Rawson,-43.3002,-65.1023,50.58,39,99,20.36,AR,1627147872
256,Skibbereen,51.55,-9.2667,71.4,77,38,5.39,IE,1627147873
257,Myrtle Beach,33.6891,-78.8867,89.19,63,1,9.22,US,1627147860
258,Semnan,35.5729,53.3971,90.73,33,4,14.63,IR,1627147873
259,Saint-Joseph,-21.3667,55.6167,68.38,80,54,7.45,RE,1627147873
260,Gurupi,-11.7292,-49.0686,91.38,22,21,8.97,BR,1627147826
261,Avera,33.194,-82.5271,89.71,46,0,6.06,US,1627147814
262,San Patricio,28.017,-97.5169,93.29,40,0,15.12,US,1627147874
263,Mwinilunga,-11.7358,24.4293,65.12,42,22,6.04,ZM,1627147875
264,Necochea,-38.5473,-58.7368,52.03,51,82,17.13,AR,1627147875
265,Isla del Bosque,22.7333,-105.85,84.24,63,63,7.2,MX,1627147876
266,Joshīmath,30.5667,79.5667,73.22,97,100,1.68,IN,1627147876
267,Atar,20.5169,-13.0499,105.48,15,72,11.5,MR,1627147877
268,Pandan,14.0453,124.1694,82.18,78,75,17.47,PH,1627147877
269,Jasper,37.2001,-94.3502,90.84,63,1,1.99,US,1627147878
270,Saint-Pierre,-21.3393,55.4781,69.48,72,90,8.05,RE,1627147878
271,Ostrovnoy,68.0531,39.5131,48.85,86,99,19.57,RU,1627147878
272,Kalisz,51.7611,18.091,77.72,51,20,6.64,PL,1627147604
273,Priboj,44.6028,18.9314,82.24,59,1,5.44,BA,1627147879
274,Ribeira Brava,32.65,-17.0667,81.72,73,0,4.18,PT,1627147879
275,Lompoc,34.6391,-120.4579,81.12,91,90,3.44,US,1627147705
276,Mocuba,-16.8392,36.9856,63.41,59,57,3.56,MZ,1627147854
277,Kalabo,-14.97,22.6814,67.05,36,12,6.76,ZM,1627147879
278,Acapulco de Juárez,16.8634,-99.8901,85.82,74,40,11.5,MX,1627147880
279,Nanhai,30.1282,111.7784,74.7,92,51,8.3,CN,1627147880
280,‘Āhuimanu,21.4447,-157.8378,78.51,81,90,11.5,US,1627147880
281,Ormara,25.2088,64.6357,82.56,83,95,8.93,PK,1627147881
282,Ola,59.5833,151.2833,52.02,94,100,4.07,RU,1627147881
283,Northam,51.0333,-4.2167,72.48,87,74,9.86,GB,1627147881
284,Setermoen,68.861,18.3486,55.36,99,100,3.36,NO,1627147882
285,Saint-Augustin,51.226,-58.6502,59.85,64,81,8.03,CA,1627147882
286,Bethel,41.3712,-73.414,83.19,47,1,12.66,US,1627147775
287,Iberia,29.9502,-91.7507,92.97,70,1,6.91,US,1627147837
288,São Sebastião do Paraíso,-20.9169,-46.9914,77.16,19,0,8.41,BR,1627147882
289,Nanortalik,60.1432,-45.2371,43.52,96,100,12.77,GL,1627147883
290,Vostok,46.4856,135.8833,72.39,77,85,3.69,RU,1627147836
291,Boa Vista,2.8197,-60.6733,87.78,62,75,6.91,BR,1627147741
292,Albanel,48.8832,-72.4487,78.78,38,67,11.5,CA,1627147883
293,Goderich,43.7501,-81.7165,71.92,88,98,12.66,CA,1627147884
294,Mitsamiouli,-11.3847,43.2844,75.92,73,53,24.38,KM,1627147884
295,Sørland,67.667,12.6934,52.48,98,100,14.41,NO,1627147829
296,Chiang Khong,20.2613,100.4046,79.12,97,100,1.52,TH,1627147884
297,Roura,4.7263,-52.3274,85.96,94,75,4.61,GF,1627147881
298,Adrar,20.5022,-10.0711,106.2,14,42,6.78,MR,1627147885
299,Morros,-9.4467,-46.3003,90.57,22,26,9.01,BR,1627147885
300,Insar,53.8653,44.3738,59.85,69,68,4.85,RU,1627147885
301,Marzuq,14.4,46.4667,74.46,75,86,7.9,YE,1627147886
302,Shiyan,32.6475,110.7781,74.41,93,0,0.38,CN,1627147886
303,Nogliki,51.8333,143.1667,61.84,99,81,4.76,RU,1627147886
304,Wajima,37.4,136.9,78.04,85,0,4.68,JP,1627147887
305,Ouadda,8.0777,22.4007,69.22,95,64,3.71,CF,1627147887
306,Changji,44.0167,87.3167,84.99,28,0,6.71,CN,1627147887
307,Lewiston,44.1003,-70.2148,82.81,55,1,3.44,US,1627147888
308,Kiryat Gat,31.61,34.7642,81.79,100,1,5.19,IL,1627147888
309,Lavrentiya,65.5833,-171.0,46.35,94,100,10.65,RU,1627147888
310,Tsimmerbude,54.675,20.1347,69.85,65,60,7.78,RU,1627147889
311,Longjiang,47.3303,123.1836,65.86,87,66,1.3,CN,1627147889
312,Lang Son,21.8333,106.7333,77.43,85,34,0.47,VN,1627147889
313,Yerbogachën,61.2767,108.0108,61.14,72,69,3.27,RU,1627147889
314,Lázaro Cárdenas,17.9583,-102.2,85.51,70,60,5.5,MX,1627147890
315,Talnakh,69.4865,88.3972,55.62,67,78,5.61,RU,1627147745
316,Diamantino,-14.4086,-56.4461,95.05,20,2,7.31,BR,1627147890
317,Tefé,-3.3542,-64.7114,87.91,70,40,9.22,BR,1627147890
318,Sulangan,11.1373,123.7228,83.44,71,25,17.63,PH,1627147891
319,Ucluelet,48.9329,-125.5528,74.05,88,22,1.01,CA,1627147705
320,Mackay,-21.15,149.2,55.69,82,0,8.05,AU,1627147842
321,Barra Patuca,15.8,-84.2833,84.45,66,100,6.8,HN,1627147891
322,Lüderitz,-26.6481,15.1594,64.76,32,5,7.23,NA,1627147891
323,Mīnāb,27.1467,57.0801,94.5,41,68,5.3,IR,1627147888
324,Manacapuru,-3.2997,-60.6206,88.38,49,28,2.33,BR,1627147892
325,Ahipara,-35.1667,173.1667,52.59,85,49,9.24,NZ,1627147710
326,Banda Aceh,5.5577,95.3222,80.89,77,99,10.67,ID,1627147892
327,Gao,16.6362,1.637,84.11,51,99,1.34,ML,1627147892
328,Sandwick,60.0,-1.25,55.22,94,90,3.44,GB,1627147893
329,Ballarat,-37.5662,143.8496,38.17,94,93,12.3,AU,1627147868
330,Vasterhaninge,59.1167,18.1,76.82,60,78,9.19,SE,1627147893
331,Wundanyi,-3.4019,38.364,59.54,74,28,14.76,KE,1627147893
332,Palmer,42.1584,-72.3287,83.77,41,20,1.99,US,1627147894
333,Harper,4.375,-7.7169,77.45,68,90,6.64,LR,1627147894
334,Salinópolis,-0.6136,-47.3561,83.44,68,96,12.01,BR,1627147894
335,Darhan,49.4867,105.9228,60.67,71,100,4.03,MN,1627147895
336,Newport,51.5877,-2.9984,71.64,81,100,10.4,GB,1627147895
337,Acaraú,-2.8856,-40.12,86.31,52,31,18.77,BR,1627147895
338,Sühbaatar,50.2314,106.2078,60.37,66,6,3.27,MN,1627147896
339,Kulhudhuffushi,6.6221,73.07,81.77,77,96,9.78,MV,1627147896
340,Sur,22.5667,59.5289,91.58,58,86,11.45,OM,1627147896
341,Beira,-19.8436,34.8389,68.09,68,40,12.66,MZ,1627147810
342,Umarkot,25.3616,69.7362,85.78,72,44,19.19,PK,1627147897
343,Meridian,43.6121,-116.3915,86.85,26,1,4.0,US,1627147897
344,Lichinga,-13.3128,35.2406,57.29,72,75,12.66,MZ,1627147897
345,Vysokyy,49.8906,36.12,78.78,36,0,6.71,UA,1627147898
346,Ambon City,-3.6954,128.1814,78.03,86,100,9.62,ID,1627147898
347,Ouro Branco,-20.5208,-43.6919,74.1,28,0,7.29,BR,1627147898
348,Griffith,41.5284,-87.4237,90.9,63,75,1.01,US,1627147898
349,Iaçu,-12.7672,-40.2117,77.5,52,97,10.67,BR,1627147899
350,Sept-Îles,50.2001,-66.3821,66.06,81,40,8.01,CA,1627147899
351,Belmonte,-15.8631,-38.8828,80.6,57,98,11.86,BR,1627147899
352,Esperance,-33.8667,121.9,49.84,80,12,18.39,AU,1627147799
353,Abonnema,4.7084,6.7931,78.13,66,82,9.1,NG,1627147900
354,Progreso,21.2833,-89.6667,92.1,67,89,12.8,MX,1627147853
355,Dongfeng,42.6403,125.5118,70.16,80,83,4.32,CN,1627147900
356,Farafangana,-22.8167,47.8333,67.05,72,98,13.18,MG,1627147900
357,Havre-St-Pierre,50.2334,-63.5986,66.56,55,1,5.75,CA,1627147901
358,Rosetta,31.4044,30.4164,80.42,74,4,15.7,EG,1627147901
359,Cervo,43.6702,-7.4101,66.96,74,21,15.64,ES,1627147901
360,Vung Tau,10.346,107.0843,80.94,80,97,20.87,VN,1627147748
361,Dodge City,37.7528,-100.0171,94.24,50,1,1.99,US,1627147902
362,Goulburn,-34.75,149.7167,40.15,96,94,23.26,AU,1627147803
363,Along,28.1667,94.7667,77.25,99,82,1.3,IN,1627147902
364,Lerwick,60.1545,-1.1494,55.4,79,96,8.05,GB,1627147902
365,Teófilo Otoni,-17.8575,-41.5053,74.73,50,35,8.08,BR,1627147672
366,Port Hedland,-20.3167,118.5667,62.65,63,7,6.91,AU,1627147888
367,Severomuysk,56.1481,113.4267,47.46,83,57,6.11,RU,1627147903
368,Araouane,18.9048,-3.5265,105.03,17,23,10.11,ML,1627147903
369,Shirokiy,49.758,129.523,69.08,97,100,8.72,RU,1627147903
370,Kavieng,-2.5744,150.7967,82.38,77,5,10.56,PG,1627147878
371,Tuy Hoa,13.0833,109.3,81.5,64,95,11.07,VN,1627147904
372,Menongue,-14.6585,17.691,60.49,23,0,4.85,AO,1627147904
373,Panguna,-6.3164,155.4848,67.96,95,91,1.23,PG,1627147904
374,Saint-François,46.4154,3.9054,74.64,65,0,3.44,FR,1627147905
375,Clyde River,70.4692,-68.5914,35.83,93,90,11.5,CA,1627147881
376,Karaton,-6.3424,106.1045,77.95,93,2,1.81,ID,1627147905
377,Vila,42.0304,-8.1588,66.74,67,34,6.24,PT,1627147905
378,Sinnamary,5.3833,-52.95,83.26,74,73,12.48,GF,1627147906
379,Kudat,6.8837,116.8477,78.73,94,20,3.44,MY,1627147906
380,Alyangula,-13.8483,136.4192,73.27,100,98,3.44,AU,1627147906
381,Pedersore,63.65,22.6833,64.53,71,45,10.22,FI,1627147907
382,Paamiut,61.994,-49.6678,42.6,96,100,5.93,GL,1627147907
383,Khorramshahr,30.4397,48.1664,103.96,18,0,6.91,IR,1627147907
384,Lincoln,40.8,-96.667,91.29,62,40,3.0,US,1627147713
385,Zilair,52.2332,57.4392,59.67,62,34,5.46,RU,1627147908
386,Hvide Sande,56.0045,8.1294,77.2,68,70,11.77,DK,1627147908
387,Ulaanbaatar,47.9077,106.8832,53.73,82,0,4.47,MN,1627147908
388,Denizli Province,37.8402,29.0698,74.25,30,52,7.92,TR,1627147908
389,Plácido de Castro,-10.3353,-67.1856,98.65,23,1,2.44,BR,1627147909
390,Ellisras,-23.6649,27.7443,49.08,35,0,7.38,ZA,1627147909
391,Bulanash,57.2783,61.9965,61.59,66,83,2.95,RU,1627147909
392,Cockburn Town,21.4612,-71.1419,87.76,62,40,17.27,TC,1627147910
393,Port Lincoln,-34.7333,135.8667,52.61,67,83,23.85,AU,1627147909
394,Dickinson,29.4608,-95.0513,95.13,64,20,1.01,US,1627147799
395,Karakol,42.4907,78.3936,66.33,27,0,5.5,KG,1627147910
396,Ambilobe,-13.2,49.05,67.37,74,74,3.51,MG,1627147910
397,Ihosy,-22.4,46.1167,57.13,83,71,9.6,MG,1627147911
398,Osa,57.2829,55.4567,53.49,86,57,3.74,RU,1627147911
399,Pompéia,-22.1086,-50.1717,84.07,17,0,9.84,BR,1627147911
400,Kintampo,8.0563,-1.7306,77.29,72,94,6.44,GH,1627147912
401,Norman,35.2226,-97.4395,93.72,62,1,11.5,US,1627147696
402,Marsh Harbour,26.5412,-77.0636,79.11,76,100,13.0,BS,1627147912
403,Nanyuki,0.0167,37.0728,62.55,59,100,4.5,KE,1627147912
404,Anadyr,64.75,177.4833,55.9,100,90,8.01,RU,1627147913
405,Tingi,-11.3,35.0333,55.38,81,62,3.38,TZ,1627147913
406,Natal,-5.795,-35.2094,88.45,51,20,21.85,BR,1627147629
407,Aksarka,66.5606,67.7975,58.68,64,78,11.18,RU,1627147913
408,Aksarayskiy,46.7924,48.0119,82.35,29,45,8.03,RU,1627147914
409,Henderson,36.0397,-114.9819,94.37,41,1,5.75,US,1627147914
410,Peruíbe,-24.32,-46.9983,71.2,61,0,4.52,BR,1627147809
411,Lipin Bor,60.2622,37.9763,58.35,51,97,3.18,RU,1627147914
412,Whitianga,-36.8333,175.7,53.02,83,72,14.74,NZ,1627147915
413,Ankazoabo,-22.2833,44.5167,61.45,48,7,16.58,MG,1627147915
414,Wukari,7.85,9.7833,74.88,86,97,5.55,NG,1627147915
415,Biak,-0.9131,122.8766,74.41,74,100,7.49,ID,1627147915
416,La Ronge,55.1001,-105.2842,70.02,60,75,9.22,CA,1627147916
417,Gorontalo,0.5412,123.0595,74.86,87,99,2.39,ID,1627147879
418,Severo-Kuril'sk,50.6789,156.125,53.91,96,76,2.44,RU,1627147784
419,Honningsvåg,70.9821,25.9704,45.34,82,100,27.42,NO,1627147916
420,Sisimiut,66.9395,-53.6735,39.06,92,97,6.24,GL,1627147917
421,Teknāf,20.8624,92.3058,80.44,89,96,10.45,BD,1627147917
422,Jishou,28.3167,109.7167,72.66,92,57,2.84,CN,1627147917
423,Caiapônia,-16.9567,-51.8103,87.06,21,0,7.11,BR,1627147918
424,Lake Charles,30.2131,-93.2044,94.98,59,1,4.61,US,1627147918
425,Fairlie,55.756,-4.8556,76.86,71,98,1.9,GB,1627147918
426,Sumenep,-7.0167,113.8667,76.3,81,2,7.38,ID,1627147919
427,Hirara,24.8,125.2833,83.16,85,100,24.58,JP,1627147884
428,Lorengau,-2.0226,147.2712,80.47,78,21,6.8,PG,1627147860
429,Emerald,-23.5333,148.1667,53.35,55,0,4.61,AU,1627147919
430,Londonderry,54.9981,-7.3093,73.42,60,39,7.78,GB,1627147919
431,Emba,48.8264,58.1442,77.88,40,42,9.66,KZ,1627147920
432,Balad,34.0164,44.1453,100.54,17,0,10.92,IQ,1627147920
433,Kananga,-5.8958,22.4178,80.17,28,7,3.65,CD,1627147920
434,Souillac,-20.5167,57.5167,70.18,83,40,8.05,MU,1627147921
435,Beroroha,-21.6667,45.1667,67.89,39,73,9.64,MG,1627147921
436,Gazli,40.1333,63.45,97.12,10,0,10.02,UZ,1627147921
437,Kot Diji,27.3427,68.7083,95.02,44,51,11.88,PK,1627147922
438,Inírida,3.8653,-67.9239,78.46,90,98,3.96,CO,1627147922
439,Christchurch,-43.5333,172.6333,42.91,88,4,1.01,NZ,1627147922
440,Yeniseysk,58.4497,92.1703,65.39,69,2,4.23,RU,1627147622
441,Johannesburg,-26.2023,28.0436,46.27,39,0,1.99,ZA,1627147761
442,Iporá,-16.4419,-51.1178,87.84,21,0,5.99,BR,1627147923
443,Dehlorān,32.6941,47.2679,103.26,11,0,8.59,IR,1627147923
444,Sucúa,-2.4667,-78.1667,83.14,44,40,5.75,EC,1627147923
445,Bereda,43.2686,-7.5406,70.41,61,55,6.15,ES,1627147924
446,Tiznit Province,29.5833,-9.5,88.81,29,88,5.26,MA,1627147924
447,Constantine,36.365,6.6147,103.41,10,40,4.61,DZ,1627147924
448,Ende,-8.8432,121.6623,71.94,73,6,1.48,ID,1627147925
449,Pucallpa,-8.3791,-74.5539,87.84,51,40,6.91,PE,1627147834
450,Bougouni,11.417,-7.479,82.24,67,97,6.35,ML,1627147925
451,Narón,43.5167,-8.1528,71.91,82,20,10.36,ES,1627147925
452,Lebanon,36.2081,-86.2911,92.44,54,1,6.91,US,1627147703
453,Reconquista,-29.15,-59.65,87.85,30,42,13.69,AR,1627147926
454,Tuatapere,-46.1333,167.6833,38.82,82,100,7.38,NZ,1627147847
455,Mayo,38.8876,-76.5119,88.23,56,75,15.99,US,1627147926
456,Victoria Point,-27.5833,153.3,58.98,72,6,1.01,AU,1627147926
457,Grand Baie,-20.0182,57.5802,70.27,75,53,12.15,MU,1627147927
458,Juneau,58.3019,-134.4197,56.84,95,90,9.22,US,1627147926
459,Tura,25.5198,90.2201,75.83,94,56,5.21,IN,1627147927
460,Brandon,27.9378,-82.2859,93.33,73,40,1.01,US,1627147922
461,Joensuu,62.6012,29.7632,67.1,46,0,6.91,FI,1627147928
462,Half Moon Bay,37.4636,-122.4286,80.92,72,20,3.44,US,1627147928
463,Vestmannaeyjar,63.4427,-20.2734,52.79,93,75,13.8,IS,1627147844
464,Pasinler,39.9803,41.6764,74.39,64,42,6.96,TR,1627147928
465,Morondava,-20.2833,44.2833,75.02,44,2,17.81,MG,1627147928
466,Tres Arroyos,-38.3739,-60.2798,56.77,35,91,13.87,AR,1627147929
467,Pelym,61.0108,61.9978,53.82,93,90,8.03,RU,1627147929
468,Jamame,0.0722,42.7506,75.56,75,25,15.43,SO,1627147929
469,Linhares,-19.3911,-40.0722,78.28,42,6,10.42,BR,1627147817
470,Bloemfontein,-29.1211,26.214,42.28,39,0,3.44,ZA,1627147930
471,Pervomayskiy,53.2485,40.2871,62.85,59,97,6.46,RU,1627147930
472,Portoferraio,42.8115,10.3146,83.08,83,20,5.75,IT,1627147930
473,Sabang,5.8933,95.3214,83.62,75,99,15.9,ID,1627147817
474,Sobolevo,54.4299,31.8996,60.91,71,57,3.85,RU,1627147921
475,Fort Nelson,58.8053,-122.7002,65.79,48,75,12.66,CA,1627147931
476,Buritis,-15.6178,-46.4233,82.76,21,3,7.31,BR,1627147931
477,Tilichiki,60.4667,166.1,50.59,94,99,2.64,RU,1627147931
478,Nālūt,30.3333,10.85,93.52,13,0,7.56,LY,1627147932
479,Santa Isabel Rio Negro,-0.4139,-65.0192,85.95,67,95,1.68,BR,1627147932
480,Kuytun,54.3419,101.5036,58.23,73,2,4.05,RU,1627147932
481,Roald,62.5833,6.1333,72.1,88,90,5.75,NO,1627147932
482,Conde,-7.2597,-34.9075,81.86,65,20,17.27,BR,1627147933
483,Talara,-4.5772,-81.2719,77.76,65,0,10.36,PE,1627147933
484,Amazar,53.858,120.875,56.64,98,97,3.49,RU,1627147933
485,Hrubieszów,50.805,23.8925,70.11,63,45,4.76,PL,1627147934
486,Russell,32.3502,-85.1999,90.37,55,1,3.44,US,1627147934
487,Poronaysk,49.2167,143.1167,64.26,98,87,4.21,RU,1627147934
488,Vila do Maio,15.1333,-23.2167,83.19,69,80,6.93,CV,1627147934
489,Coyhaique,-45.5752,-72.0662,38.01,87,75,4.61,CL,1627147935
490,Bariloche,-41.1456,-71.3082,46.15,46,75,8.05,AR,1627147658
491,Itoman,26.1247,127.6694,80.98,96,75,17.27,JP,1627147935
492,Padang,-0.9492,100.3543,77.74,85,76,3.6,ID,1627147877
493,Pacific Grove,36.6177,-121.9166,75.42,90,90,5.99,US,1627147936
494,Neunkirchen,49.35,7.1833,75.54,84,40,1.01,DE,1627147936
495,Oddur,4.1213,43.8894,75.0,51,98,24.11,SO,1627147900
496,Cuxhaven,53.8718,8.6909,78.3,75,82,12.03,DE,1627147936
497,Camabatela,-8.1881,15.375,69.93,23,0,5.12,AO,1627147937
498,St-Jean-Port-Joli,47.2171,-70.2658,82.0,58,24,11.99,CA,1627147937
499,Saurimo,-9.6608,20.3916,71.06,28,1,3.22,AO,1627147937
500,Songjianghe,42.1859,127.479,67.86,82,42,3.96,CN,1627147938
501,Salamiyah,35.0113,37.0532,79.45,60,23,14.81,SY,1627147938
502,Remanso,-9.6179,-42.0831,82.62,48,33,17.25,BR,1627147939
503,Ust-Nera,64.5667,143.2,59.05,99,100,7.25,RU,1627147939
504,Kitui,-1.367,38.0106,66.52,47,69,15.28,KE,1627147939
505,Maniitsoq,65.4167,-52.9,40.59,77,40,6.13,GL,1627147939
506,Sainte-Maxime,43.3,6.6333,87.98,73,65,8.52,FR,1627147940
507,Moerai,-22.4333,-151.3333,70.65,62,22,6.38,PF,1627147940
508,Amapá,1.0,-52.0,82.27,66,47,2.53,BR,1627147940
509,Ancud,-41.8697,-73.8203,46.22,69,100,3.8,CL,1627147941
510,Yasnyy,51.0333,59.8742,66.69,81,68,4.81,RU,1627147941
511,Qingdao,36.0986,120.3719,76.6,78,0,2.24,CN,1627147941
512,Teluk Nibung,3.001,99.8164,77.49,91,100,4.34,ID,1627147941
513,Mumford,5.2618,-0.759,76.57,76,44,14.23,GH,1627147942
514,Cilegon,-6.0174,106.0538,76.89,79,0,3.6,ID,1627147942
515,Jumla,29.2747,82.1838,65.16,94,100,2.35,NP,1627147942
516,Henties Bay,-22.116,14.2845,66.56,32,1,6.44,NA,1627147943
517,Itamaracá,-7.7478,-34.8256,83.08,73,13,13.29,BR,1627147943
518,Sambava,-14.2667,50.1667,68.72,77,19,12.84,MG,1627147940
519,Booué,-0.0921,11.9385,83.34,51,86,3.27,GA,1627147943
520,Mürzzuschlag,47.6,15.6833,77.68,79,84,4.03,AT,1627147944
521,Kharabali,47.4196,47.2568,77.85,34,9,5.44,RU,1627147944
522,Dudinka,69.4058,86.1778,50.97,72,90,3.83,RU,1627147944
523,Anyang,36.0994,114.3289,77.56,79,2,4.03,CN,1627147945
524,Taku,39.0211,117.6469,80.56,79,9,7.25,CN,1627147945
525,Rach Gia,10.0167,105.0833,80.64,79,100,20.36,VN,1627147945
526,Nampula,-15.1165,39.2666,66.15,63,75,13.8,MZ,1627147945
527,Vidisha,23.5333,77.8167,78.13,97,100,10.2,IN,1627147946
528,Lubao,14.9167,120.55,80.15,89,100,12.1,PH,1627147946
529,Arlit,18.7369,7.3853,102.0,21,26,7.23,NE,1627147947
530,Puerto Escondido,15.85,-97.0667,88.63,66,40,5.75,MX,1627147947
531,Aulnay-sous-Bois,48.9366,2.4938,78.08,57,75,10.36,FR,1627147947
532,Husavik,66.0449,-17.3389,62.51,69,96,13.65,IS,1627147947
533,Abu Kamal,34.4506,40.9171,97.81,24,0,8.66,SY,1627147948
534,Elliot Lake,46.3834,-82.6331,66.29,99,100,8.86,CA,1627147948
535,Snyder,32.7179,-100.9176,91.74,46,1,11.5,US,1627147948
536,Carballo,43.213,-8.691,72.59,77,41,7.85,ES,1627147949
537,Tambacounda,13.7539,-13.7586,96.85,44,75,6.91,SN,1627147949
538,Tshikapa,-6.4167,20.8,83.53,25,19,3.91,CD,1627147949
539,Tagāb,34.855,69.6492,91.31,26,30,4.09,AF,1627147949
540,Hualmay,-11.0964,-77.6139,68.43,69,28,9.75,PE,1627147853
541,Arbazh,57.6804,48.3065,50.61,58,49,5.55,RU,1627147950
542,Severnoye,56.3491,78.3619,67.53,84,69,2.51,RU,1627147950
543,Wajir,1.7471,40.0573,81.0,39,85,23.6,KE,1627147950
